nsn,address,items_with_price,lat,lon
1190,"AINA HAINA SHOPPING CENTER, HONOLULU, HI, 96821",521,21.278452,-157.753585
1206,"3254 WAIALAE AVE, HONOLULU, HI, 96816",389,21.286669,-157.80628
1260,"406 KUULEI RD, KAILUA, HI, 96734",433,21.395473,-157.742839
1402,"1414 DILLINGHAM BLVD, HONOLULU, HI, 96817-4818",393,21.324232,-157.875919
1485,"1065 WAIMANO HOME RD, PEARL CITY, HI, 96782",384,21.394489,-157.969645
1502,"75-5729 KUAKINI HWY, KAILUA KONA, HI, 96740",471,19.639758,-155.990748
1519,"155 PUUNENE AVE, KAHULUI, HI, 96732-2403",435,20.887667,-156.464868
1621,"85-770 FARRINGTON HIGHWAY, WAIANAE, HI, 96792",503,21.447831,-158.188961
1681,"95-281 KIPAPA DRIVE, MILILANI, HI, 96789",394,21.456457,-158.016075
1682,"4618 KILAUEA AVE, HONOLULU, HI, 96816",518,21.275447,-157.78567
1683,"3113 KUHIO HWY, LIHUE, HI, 96766",436,21.977832,-159.368738
1896,"45-480 KANEOHE BAY DRIVE, KANEOHE, HI, 96744",391,21.402491,-157.797779
1969,"1055 S BERETANIA ST, HONOLULU, HI, 96814",390,21.302412,-157.846474
2221,"414 N SCHOOL ST, HONOLULU, HI, 96817",382,21.321575,-157.859667
2331,"2121 S KING ST, HONOLULU, HI, 96826",382,21.293925,-157.8282
2820,"114 S KAM HWY, WAHIAWA, HI, 96786",389,21.494338,-158.028696
3856,"1058 KEOLU DR, KAILUA, HI, 96734-3845",432,21.377948,-157.728776
4029,"928 VALKENBURGH ST, HONOLULU, HI, 96818",390,21.344114,-157.928129
4544,"1778 ALA MOANA BLVD, HONOLULU, HI, 96815-1605",431,21.285214,-157.838033
4552,"910 KEEAUMOKU ST, HONOLULU, HI, 96814-2311",389,21.297285,-157.841009
4903,"2915 E MANOA RD, HONOLULU, HI, 96822",457,21.309661,-157.809588
5485,"4-0771 KUHIO HWY, KAPAA, HI, 96746",436,22.061149,-159.321851
5763,"1101 FORT STREET MALL, HONOLULU, HI, 96813",435,21.30986,-157.860991
6604,"885 WAINEE ST, LAHAINA, HI, 96761",0,20.877909,-156.679397
7267,"81-6655 MAMALAHOA HWY, KEALAKEKUA, HI, 96750",471,19.51759,-155.920444
7320,"2476 KALAKAUA AVE, HONOLULU, HI, 96815",410,21.274599,-157.824149
7369,"2138 MAIN ST, WAILUKU, HI, 96793",427,20.887568,-156.503724
7519,"99-115 AIEA HTS DRIVE, AIEA, HI, 96701-3924",509,21.378909,-157.930208
7520,"41-1033 KALANIANAOLE HWY, WAIMANALO, HI, 96795",434,21.340635,-157.704103
7627,"55-400 KAMEHAMEHA HWY, LAIE, HI, 96762",0,21.641122,-157.919888
7830,"3320 HALEAKALA HWY, PUKALANI, HI, 96788",444,20.836092,-156.337278
7831,"881 FREDRICK ST., HONOLULU, HI, 96818",454,21.349632,-157.945114
10646,"87-2028 FARRINGTON HIGHWAY, WAIANAE, HI, 96792",501,21.387552,-158.151428
10761,"66-457 KAM HWY, HALEIWA, HI, 96712",409,21.581169,-158.105528
11076,"2121 N NIMITZ HWY, HONOLULU, HI, 96819",389,21.327114,-157.886055
11077,"91-919 FT WEAVER ROAD, EWA BEACH, HI, 96706-2257",453,21.317707,-158.013887
11219,"65-1154 MAMALAHOA HWY, KAMUELA, HI, 96743-2130",472,20.022401,-155.666841
11461,"4403 HONOAPIILANI HWY, LAHAINA, HI, 96761-9255",444,20.971772,-156.67753
11730,"2100 KANOELEHUA AVE, HILO, HI, 96720",458,19.691208,-155.066658
11982,"1214 S KIHEI RD PO BOX 1105, KIHEI, HI, 96753",427,20.750603,-156.456286
12459,"6691 MOKAPU RD, KAILUA, HI, 96734",389,21.442464,-157.744955
12658,"91-590 FARRINGTON HWY STE 2, KAPOLEI, HI, 96707",501,21.339842,-158.077026
12659,"94-795 LUMIAINA ST, WAIPAHU, HI, 96797",396,21.400332,-158.007572
12660,"94-1015 KA UKA BLVD, WAIPAHU, HI, 96797",452,21.419327,-158.005198
12847,"4561 SALT LAKE BLVD, HONOLULU, HI, 96818",515,21.367076,-157.930041
13394,"16-565 OLD VOLCANO ROAD, KEAAU, HI, 96749",460,19.62166,-155.039762
14086,"275 KAAHUMANU AVE, KAHULUI, HI, 96732",0,20.887605,-156.475268
14269,"95-550 LANIKUHANA AVE (W*M #2126), MILILANI, HI, 96789",415,21.450073,-158.0058
14643,"3-3300 KUHIO HWY (W*M #2308), LIHUE, HI, 96766",0,21.98252,-159.365335
14644,"94-595 KAPUOHI ST (W*M #2314), WAIPAHU, HI, 96797",447,21.391056,-158.034483
14645,"75-1015 HENRY ST (W*M #2321), KAILUA KONA, HI, 96740-1681",382,19.645583,-155.990497
15427,"3-2600 KAUMUALII HWY (SATELLITE), LIHUE, HI, 96766",0,21.970078,-159.379467
16246,"95-1860 MEHEULA PARKWAY, MILILANI, HI, 96789",389,21.467467,-158.001668
16264,"333 WARD AVE, HONOLULU, HI, 96814",0,21.296229,-157.85528
17250,"790 EHA ST, WAILUKU, HI, 96793",425,20.906114,-156.487458
17263,"4469 WAIALO RD, ELEELE, HI, 96705",435,21.904751,-159.584882
20165,"325 E MAKAALA ST (WALMART #2473), HILO, HI, 96740",355,19.699975,-155.061958
21813,"2237 KUHIO AVE, HONOLULU, HI, 96815",402,21.280425,-157.827627
22427,"94-212 LEOKU ST, WAIPAHU, HI, 96797",452,21.378413,-158.024173
22708,"47-250 HUI IWA, KANEOHE, HI, 96744",406,21.435486,-157.826344
22843,"340 DAIRY RD, KAHULUI, HI, 96732",442,20.883133,-156.453627
23244,"98-147 KAMEHAMEHA HWY, AIEA, HI, 96701",512,21.381949,-157.943709
23347,"848 ALA LILIKOI ST, HONOLULU, HI, 96818",384,21.345912,-157.913406
23624,"98-1005 MOANALUA RD STE 618, AIEA, HI, 96701",0,21.385638,-157.941819
24789,"1620 NORTH SCHOOL STREET, HONOLULU, HI, 96817",391,21.335327,-157.868494
24790,"377 KEAHOLE STREET, HONOLULU, HI, 96825",523,21.28524,-157.708106
27650,"101 PAKAULA ST (W*M #3290), KAHULUI, HI, 96732",386,20.877892,-156.455391
27693,"4725 BOUGAINVILLE DR, HONOLULU, HI, 96818",0,21.34893,-157.930476
30718,"1131 KUALA STREET (WALMART), PEARL CITY, HI, 96782",358,21.397234,-157.974458
32605,"91-600 FARRINGTON HWY, KAPOLEI, HI, 96707",437,21.342027,-158.07528
33068,"1450 ALA MOANA BLVD, SUITE 1060, HONOLULU, HI, 96814",0,21.291274,-157.842936
33309,"1180 KUALA STREET, PEARL CITY, HI, 96782",391,21.400059,-157.973896
33360,"255 KINOOLE ST., HILO, HI, 96720",457,19.723353,-155.087503
34230,"4600 KAPOLEI PARKWAY, KAPOLEI, HI, 96707",502,21.328258,-158.087903
34231,"74-5453 MAKALA BLVD., KAILUA-KONA, HI, 96740",471,19.649047,-156.003992
