nsn,address,items_with_price,lat,lon
292,"3144 NW CACHE RD, LAWTON, OK, 73505",467,34.623079,-98.434648
705,"6012 S PENNSYLVANIA AVE, OKLAHOMA CITY, OK, 73159-3302",468,35.405107,-97.547449
1118,"7025 SE 15TH ST, MIDWEST CITY, OK, 73110",443,35.450181,-97.402481
1626,"7010 NW 23RD ST, BETHANY, OK, 73008-5221",407,35.492961,-97.635775
1767,"4249 S YALE ST, TULSA, OK, 74135-6004",505,36.101291,-95.92183
1869,"4502 SE 29TH ST, DEL CITY, OK, 73115",441,35.43474,-97.43687
2149,"1010 W MAINE ST, ENID, OK, 73703",428,36.395861,-97.890741
2493,"1829 S GARNETT, TULSA, OK, 74128-1832",450,36.13549,-95.850557
2630,"606 SE WASHINGTON BLVD, BARTLESVILLE, OK, 74003",440,36.746394,-95.934694
2634,"5812 NORTHWEST EXPY, OKLAHOMA CITY, OK, 73132-5239",417,35.548105,-97.617186
2680,"110 W MCELROY, STILLWATER, OK, 74076",456,36.131128,-97.060122
2711,"2104 S SHERIDAN, TULSA, OK, 74133",484,36.132952,-95.905088
3032,"2124 N 14TH ST, PONCA CITY, OK, 74601-1829",419,36.729006,-97.067762
3033,"312 S MERIDIAN AVE, OKLAHOMA CITY, OK, 73108-1012",413,35.463263,-97.600472
3054,"830 N ELM PL, BROKEN ARROW, OK, 74012",449,36.060468,-95.798302
3056,"30 S SHERIDAN, LAWTON, OK, 73501-5501",465,34.607944,-98.421455
3231,"8105 E ADMIRAL PL, TULSA, OK, 74115-8116",455,36.161195,-95.886174
3384,"1535 NW 50TH ST, OKLAHOMA CITY, OK, 73118-4411",407,35.522848,-97.538078
3457,"1131N MAIN ST, MIAMI, OK, 74354",502,36.888327,-94.878113
3673,"1411 N HARRISON, SHAWNEE, OK, 74801-5245",489,35.345734,-96.911411
3708,"1001 W BROADWAY, ARDMORE, OK, 73401-4530",454,34.174893,-97.141623
3908,"4935 S MEMORIAL DR, TULSA, OK, 74145-6914",424,36.091487,-95.885773
4181,"31 WEST MAIN, YUKON, OK, 73099-2234",433,35.508612,-97.743784
4244,"2901 S MAY, OKLAHOMA CITY, OK, 73108-5625",470,35.435794,-97.565993
4280,"480 S WOOD DR, OKMULGEE, OK, 74447",455,35.619564,-95.961274
4282,"7525 S WESTERN, OKLAHOMA CITY, OK, 73139-2407",436,35.390674,-97.530537
4540,"1758 E CARL ALBERT PKY, MCALESTER, OK, 74501-5138",492,34.926412,-95.742479
4582,"1708 E 1ST ST, TULSA, OK, 74104-1401",465,36.158247,-95.96668
5007,"1906 HWY 64 N, GUYMON, OK, 73942",472,36.698618,-101.483594
5029,"220 E BROADWAY, ALTUS, OK, 73521-5504",477,34.637508,-99.331689
5183,"2027 S 4TH ST, CHICKASHA, OK, 73018-5942",431,35.029893,-97.934381
5184,"2424 S COUNTRY CLUB DR, EL RENO, OK, 73036-5813",447,35.511358,-97.973202
5375,"201 S COUNCIL, OKLAHOMA CITY, OK, 73128",407,35.46379,-97.655169
5394,"2720 OKLAHOMA AVE, WOODWARD, OK, 73801-4012",430,36.434142,-99.416155
5670,"1501 S MUSKOGEE, TAHLEQUAH, OK, 74464",0,35.897013,-94.975881
5948,"140 W SHAWNEE, MUSKOGEE, OK, 74401-4147",453,35.770989,-95.359352
5985,"2227 W MAIN ST, DURANT, OK, 74701-4803",435,33.997722,-96.405954
6144,"920 W 6TH ST, STILLWATER, OK, 74074",454,36.11629,-97.070408
6302,"7590 OWASSO EXPY, OWASSO, OK, 74055-3445",458,36.263207,-95.850409
6383,"1004 W SHERIDAN, OKLAHOMA CITY, OK, 73106",518,35.466102,-97.529574
6527,"105 S.W. 19TH, MOORE, OK, 73160-6011",438,35.320736,-97.487811
6528,"6700 N MAY, OKLAHOMA CITY, OK, 73116",473,35.539415,-97.56533
6613,"3800 S ELM PL, BROKEN ARROW, OK, 74012",462,36.015604,-95.797913
6677,"2230 E MAIN ST, CUSHING, OK, 74023-2907",458,35.986118,-96.737502
6695,"5819 S 49TH WEST AVE, TULSA, OK, 74107",531,36.07846,-96.046855
6696,"2009 S MAIN, ELK CITY, OK, 73648-9113",484,35.392581,-99.405782
6972,"818 N COUNTRY CLUB RD, ADA, OK, 74820-2844",440,34.783274,-96.652086
7003,"101 N TRADING CENTER TER, MUSTANG, OK, 73064",405,35.392142,-97.721738
7015,"12135 N I 35, OKLAHOMA CITY, OK, 73131",0,35.593287,-97.436295
7020,"300 N 193RD E AVE, CATOOSA, OK, 74015-2854",433,36.164772,-95.762158
7190,"2525 N ASPEN, BROKEN ARROW, OK, 74012-1153",455,36.076705,-95.81462
7192,"500 E MAIN, HENRYETTA, OK, 74437-4438",464,35.43957,-95.975961
7268,"1150 E ALAMEDA, NORMAN, OK, 73071-5253",451,35.217934,-97.424161
7270,"2301 RED WHEAT, CLINTON, OK, 73601-5315",483,35.501158,-98.988129
7353,"RT 2 BOX 13AG BAILEY TRPK, WALTERS, OK, 73572-0323",0,34.370621,-98.409534
7386,"4125 W GARRIOTT, ENID, OK, 73703",432,36.390104,-97.928821
7387,"11000 N ROCKWELL, OKLAHOMA CITY, OK, 73132",401,35.58122,-97.637852
7419,"1441 N PEORIA, TULSA, OK, 74104",470,36.176594,-95.975081
7435,"1527 S DIVISION, GUTHRIE, OK, 73044-5009",429,35.861135,-97.425858
7446,"1006 S. ROBERT KERR BLVD., SALLISAW, OK, 74955-7225",497,35.449401,-94.804832
7489,"2245 SOUTHWEST BLVD, TULSA, OK, 74107-2706",487,36.130199,-96.006304
7491,"1220 W WILL ROGERS BLVD, CLAREMORE, OK, 74017-3448",441,36.316809,-95.625088
7647,"1406 E 71ST, TULSA, OK, 74136-5037",469,36.060258,-95.9731
7775,"INDIAN NATION TURNPIKE, ANTLERS, OK, 74523-0879",0,34.244651,-95.65419
7776,"HE BAILEY TURNPIKE, CHICKASHA, OK, 73018",469,35.081739,-97.889782
7777,"INDIAN NATION TURNPIKE, DUSTIN, OK, 74839",0,35.269371,-95.935164
7778,"MUSKOGEE TURNPIKE, MUSKOGEE, OK, 74401",505,35.852697,-95.420964
7794,"110 W 141ST ST, GLENPOOL, OK, 74033-3535",483,35.958735,-96.009591
7819,"2802 W FIR, PERRY, OK, 73077",472,36.289138,-97.323895
7848,"1801 N BROADWAY, POTEAU, OK, 74953-3532",459,35.066032,-94.625145
7856,"8001 NW HWY, OKLAHOMA CITY, OK, 73132",413,35.566518,-97.656699
8054,"12216 N PENNSYLVANIA, OKLAHOMA CITY, OK, 73120-7834",499,35.59423,-97.548844
10012,"209 W 3RD, GROVE, OK, 74344-3203",506,36.593777,-94.77282
10080,"9000 SE 29TH ST, OKLAHOMA CITY, OK, 73130-7104",442,35.434764,-97.370246
10181,"TURNER TURNPIKE, STROUD, OK, 74079",0,35.751979,-96.688952
10300,"MILE 36 CIMARRON TURNPIKE, PAWNEE, OK, 74058",521,36.224757,-96.796271
10319,"WILL ROGERS TURNPIKE, VINITA, OK, 74301",421,36.623188,-95.147877
10325,"5815 MARTIN LUTHER KING, OKLAHOMA CITY, OK, 73111-7050",526,35.530677,-97.477241
10420,"909 N 44TH, BLACKWELL, OK, 74631",414,36.812117,-97.337548
10422,"1100 S MISSISSIPPI, ATOKA, OK, 74525-2868",446,34.375221,-96.135193
10726,"101 ED NOBLE PKY, NORMAN, OK, 73072",408,35.217865,-97.489441
10774,"9001 S PENNSYLVANIA, OKLAHOMA CITY, OK, 73159-6932",446,35.376684,-97.548431
10857,"4849 KICKAPOO, SHAWNEE, OK, 74801-1316",492,35.382282,-96.929048
10861,"9001 NE 23RD, MIDWEST CITY, OK, 73141",427,35.493629,-97.370414
10915,"1423 MILT PHILLIPS BLVD, SEMINOLE, OK, 74868-2327",459,35.237491,-96.67185
10963,"1015 SW LEE BLVD, LAWTON, OK, 73501-5720",477,34.594942,-98.40428
11024,"420 S DEWEY, WAGONER, OK, 74467-5500",503,35.956741,-95.3958
11031,"113 NW 23RD ST, OKLAHOMA CITY, OK, 73103-4306",510,35.493834,-97.514233
11207,"849 S MILL ST, PRYOR, OK, 74361-6021",444,36.293227,-95.32371
11657,"2211 S 9TH, PURCELL, OK, 73080-1742",449,34.984519,-97.371791
12382,"8952 S MEMORIAL DR, TULSA, OK, 74133-4303",426,36.032234,-95.887037
12383,"9525 E 71ST ST S, TULSA, OK, 74145",426,36.061383,-95.87001
12421,"620 S MAIN STREET, EUFAULA, OK, 74432",449,35.280458,-95.583221
13060,"2101 NW 23RD ST, OKLAHOMA CITY, OK, 73107",488,35.493714,-97.548063
13113,"511 S 1ST ST, MADILL, OK, 73446",445,34.085798,-96.769324
13297,"20 SE 33RD ST, EDMOND, OK, 73013",426,35.623102,-97.484806
13298,"1252 GARTH BROOKS BLVD, YUKON, OK, 73099",419,35.489934,-97.760945
13527,"351 E ROBINSON, NORMAN, OK, 73069",440,35.233264,-97.441557
14139,"4000 GREEN COUNTRY (W*M #41), BARTLESVILLE, OK, 74006",0,36.740494,-95.932161
14251,"2933 E MEMORIAL, EDMOND, OK, 73034",427,35.60961,-97.460934
14687,"1720 W LINDSEY ST, NORMAN, OK, 73069",418,35.203561,-97.466609
14708,"126 W RAY FINE BLVD, ROLAND, OK, 74954",508,35.405646,-94.522811
14813,"207 S MEMORIAL (W*M #576), TULSA, OK, 74112",0,36.159316,-95.883877
14985,"432 S GEORGE NIGH EXPY (W*M #151), MCALESTER, OK, 74501",0,34.919234,-95.741098
15148,"2091 E 81ST ST S (W*M #992), TULSA, OK, 74132-2652",0,36.047722,-95.960854
15847,"1509 E JACKSON, HUGO, OK, 74743",453,34.009369,-95.493916
16140,"111 E ILLINOIS, VINITA, OK, 74301",438,36.638308,-95.154177
17080,"1235 N KELLY, EDMOND, OK, 73003-4865",402,35.667051,-97.496543
17214,"7010 S ZURICH AVE, TULSA, OK, 74117",442,36.062155,-95.921667
17240,"801 ADA WEBB DR, STROUD, OK, 74079",430,35.754329,-96.6633
17449,"605 W MAIN, JENKS, OK, 74037",483,36.023021,-95.976477
17566,"501 SW 19TH ST (W*M #277), MOORE, OK, 73160",0,35.321955,-97.492932
18055,"2500 N MAIN (W*M #479), ALTUS, OK, 73521",0,34.664076,-99.331954
18213,"407 LINWOOD PLZ (W*M #893), LINDSAY, OK, 73052",390,34.83517,-97.597462
18380,"12101 S MEMORIAL, BIXBY, OK, 74008",459,35.987926,-95.885926
18392,"3108 N BROADWAY (W*M #31), POTEAU, OK, 74953",0,35.094315,-94.628234
18582,"513 S PARK DR, BROKEN BOW, OK, 74728",424,34.021861,-94.738987
19135,"3106 S MEMORIAL RD, TULSA, OK, 74135",440,36.118508,-95.887211
20475,"7800 S SOONER RD, OKLAHOMA CITY, OK, 73135",461,35.388561,-97.422885
20926,"630 NW 12TH ST, MOORE, OK, 73160",440,35.348258,-97.498605
21039,"3722 NW 39TH ST, OKLAHOMA CITY, OK, 73112",406,35.51086,-97.584179
21192,"2415 CHANDLER, MUSKOGEE, OK, 74403",454,35.740184,-95.339227
21193,"1501 SE 29TH ST, OKLAHOMA CITY, OK, 73129",444,35.435845,-97.485303
21196,"99 S STATE HWY 97, SAND SPRINGS, OK, 74063",443,36.135834,-96.114655
21432,"5850 NW 39TH EXPY, WARR ACRES, OK, 73122",406,35.510569,-97.618348
22425,"4122 S GARNETT RD E, TULSA, OK, 74146",439,36.103384,-95.851635
22620,"1125 W WILLOW, ENID, OK, 73703",426,36.419366,-97.893003
22714,"16 E TAFT, SAPULPA, OK, 74066",480,35.988131,-96.113181
22817,"401 S MACARTHUR BLVD, OKLAHOMA CITY, OK, 73128",421,35.461822,-97.619497
23021,"2700 NE 10TH ST, OKLAHOMA CITY, OK, 73117",0,35.478045,-97.463689
23022,"201 W LOCUST ST, STILWELL, OK, 74960",427,35.808875,-94.629442
23058,"1 NW 67TH ST, LAWTON, OK, 73505",477,34.609568,-98.474177
23728,"1414 S SANTA FE AVE, EDMOND, OK, 73003",427,35.639051,-97.513195
24376,"11604 N 135TH E AVE, COLLINSVILLE, OK, 74021",442,36.322705,-95.82457
24471,"1202 COOPER DR, ARDMORE, OK, 73401",452,34.188283,-97.169752
24632,"10809 N MAY, THE VILLAGE, OK, 73120",402,35.579844,-97.567549
24961,"101 S 32ND ST, MUSKOGEE, OK, 74401",453,35.754606,-95.403032
25007,"1710 S LYNN RIGGS BLVD, CLAREMORE, OK, 74017",437,36.291529,-95.631386
25209,"8112 S MINGO RD, TULSA, OK, 74133",423,36.045962,-95.868983
25542,"1300 E 2ND ST, EDMOND, OK, 73034",404,35.652231,-97.46256
26238,"8000 E RENO, MIDWEST CITY, OK, 73110",0,35.4635,-97.387939
26529,"14001 N PENNSYLVANIA AVE, OKLAHOMA CITY, OK, 73134",427,35.612896,-97.54999
26531,"13501 N MACARTHUR, OKLAHOMA CITY, OK, 73142",499,35.607369,-97.621479
27111,"333 S 129TH E AVE, TULSA, OK, 74101",425,36.15619,-95.832514
27356,"1216 E 15TH ST S, TULSA, OK, 74120",468,36.140317,-95.975941
27721,"4 S. MUSTANG RD, OKLAHOMA CITY, OK, 73099",414,35.466028,-97.724123
27722,"1310 E. MAIN ST, STIGLER, OK, 74462",459,35.254179,-95.10949
28093,"404 MAIN STREET, JAY, OK, 74346",486,36.425741,-94.785774
28296,"2441 SE WASHINGTON BLVD, BARTLESVILLE, OK, 74006",437,36.7139,-95.935844
28413,"400 S MORGAN RD, OKLAHOMA CITY, OK, 73128",413,35.461747,-97.687988
28583,"4418 SHIELDS BLVD., OKLAHOMA CITY, OK, 73129",441,35.4212,-97.507233
28811,"6310 S ELM PL (WALMART #3295), BROKEN ARROW, OK, 74011",0,35.991335,-95.800057
28816,"6301 NW QUANNAH PARKER TRWY (W*M #5071), LAWTON, OK, 73505",0,34.630362,-98.470196
28818,"220 S HWY 97 (W*M #838), SAND SPRINGS, OK, 74063-3832",0,36.134957,-96.12
28819,"196 E SHAWNEE MALL DR (W*M), SHAWNEE, OK, 74804",0,35.385074,-98.078653
28820,"5505 W OWEN K GARRIOTT (W*M #499), ENID, OK, 73754",0,36.38834,-97.945947
29299,"14855 N EAST 23RD, CHOCTAW, OK, 73020",440,35.49348,-97.26828
29433,"2301 W KENOSHA ST (WALMART #472), BROKEN ARROW, OK, 74012",0,36.058535,-95.817463
29435,"6100 W RENO AVE (W*M #564), OKLAHOMA CITY, OK, 73127",0,35.463262,-97.622433
29436,"7800 NW EXPY (W*M #622), OKLAHOMA CITY, OK, 73132",0,35.562757,-97.653666
29681,"333 INTERSTATE DR (WALMART 0212), NORMAN, OK, 73069",0,35.221425,-97.481688
29682,"1801 BELLE ISLE BLVD (WALMART 2804), OKLAHOMA CITY, OK, 73118",0,35.525799,-97.539775
29684,"12101 E 96TH ST N (WALMART 0168), OWASSO, OK, 74055",312,36.294627,-95.838163
29739,"1551 ANN BRANDEN BLVD., NORMAN, OK, 73071",445,35.182737,-97.416749
29760,"1817 N. HWY. 81, DUNCAN, OK, 73533",438,34.528363,-97.967315
29811,"105 N WASHINGTON, WEATHERFORD, OK, 73096",486,35.526973,-98.694554
30158,"610 W.  ROGERS BLVD., SKIATOOK, OK, 74070",433,36.369049,-96.009823
30172,"10609 S. MAY AVE., OKLAHOMA CITY, OK, 73170",432,35.362482,-97.565621
30444,"100 E I-240 SERVICE RD (W*M #743), OKLAHOMA CITY, OK, 73149",0,35.391605,-97.5114
30568,"2000 W MEMORIAL (W*M #1626), OKLAHOMA CITY, OK, 73120",0,35.6086,-97.548419
30601,"3254 HILL STAR DRIVE, NEWCASTLE, OK, 73065",407,35.291479,-97.607594
30851,"1000 W. SHAWNEE ST. (WAL*MART #130), MUSKOGEE, OK, 74401",0,35.770178,-95.37083
30959,"920 S. ROSS ST, FORT GIBSON, OK, 74434",0,35.784993,-95.239758
30967,"1225 W.I-35 FRONTAGE RD.(W*M), EDMOND, OK, 73034-7394",0,35.638214,-97.424664
31054,"130 W BRITTON RD., OKLAHOMA CITY, OK, 73114",446,35.565018,-97.515217
31191,"1404 SO. CHOUTEAU AVE., CHOUTEAU, OK, 74337",510,36.16958,-95.341338
31355,"417 W MAIN, WILBURTON, OK, 74578",459,34.917998,-95.316598
31357,"2635 WEST GRANT AVE, PAULS VALLEY, OK, 73075",447,34.740529,-97.261064
31444,"1003 S. HWY.  2, WARNER, OK, 74469",520,35.479421,-95.307146
31648,"201 SE LINCOLN ROAD, IDABEL, OK, 74745",425,33.894093,-94.790668
31714,"925 SW 134TH ST., OKLAHOMA CITY, OK, 73170",431,35.334777,-97.531048
31879,"1301 S. HARVARD, TULSA, OK, 74112",426,36.143878,-95.940069
32243,"309 S. BROADWAY ST., CLEVELAND, OK, 74020",436,36.306064,-96.46379
32413,"501 E. RENO AVE., OKLAHOMA CITY, OK, 73102-5014",525,35.464555,-97.50303
32476,"11091 S. HIGHWAY 51, BROKEN ARROW, OK, 74014",456,36.0033,-95.680668
32525,"2539 W. BROADWAY AVE., SULPHUR, OK, 73086",436,34.505757,-97.002607
32606,"2030 HIGHWAY 9 WEST, NORMAN, OK, 73072",411,35.182056,-97.506322
32607,"702 N MAIN, BRISTOW, OK, 74010",425,35.839447,-96.391275
32608,"7105 S OLYMPIA AVE  W, TULSA, OK, 74132",466,36.060481,-96.003564
32770,"1600 S. MAIN, KINGFISHER, OK, 73750",446,35.841868,-97.933185
32858,"99 PAUL CARR DRIVE, CHECOTAH, OK, 74426",454,35.471616,-95.536884
33109,"1303 MEMORIAL DRIVE, MARIETTA, OK, 73448",447,33.940058,-97.131428
33222,"7738 HWY. 277, ELGIN, OK, 73538",437,34.782699,-98.296958
33275,"1818 E. 1ST ST., CHANDLER, OK, 74834",428,35.70998,-96.860192
33494,"3520 W. TECUMSEH RD., NORMAN, OK, 73072",431,35.261328,-97.493043
33527,"16410 N MAY, OKLAHOMA CITY, OK, 73013",432,35.63765,-97.566488
33579,"714 W. PETREE ROAD, ANADARKO, OK, 73005",493,35.057446,-98.254992
33704,"1210 GORDON COOPER DR., TECUMSEH, OK, 74873",435,35.273776,-96.93086
33834,"1250 E. ALBANY ST., BROKEN ARROW, OK, 74012",465,36.075673,-95.778422
34123,"20221 E. 1110 RD. (W*M #134), ELK CITY, OK, 73648",0,35.409222,-99.376606
34222,"3115 S. HARRAH RD., HARRAH, OK, 73045",534,35.434772,-97.160016
34401,"1900 E. MAIN, PAWHUSKA, OK, 74056",451,36.668023,-96.316119
34537,"609 S. WOODY GUTHRIE ST., OKEMAH, OK, 74859-4643",463,35.423887,-96.300383
34836,"102 E. HWY. 33, PERKINS, OK, 74059",473,35.985177,-97.051195
35035,"12101 SO. WACO AVE., GLENPOOL, OK, 74066",484,35.98786,-96.015933
35064,"424 EAST HWY, HOLDENVILLE, OK, 74848",440,35.08716,-96.38231
35375,"13300 PIEDMONT RD., PIEDMONT, OK, 73099",422,35.605543,-97.744728
35401,"229 N. GILCREASE MUSEUM RD., TULSA, OK, 74127-6537",488,36.157697,-96.019835
35757,"602 OKLAHOMA BLVD., ALVA, OK, 73717",430,36.798008,-98.667417
35869,"HWY. 66/EL CAMINO, SAYRE, OK, 73662",0,35.265822,-99.643335
