nsn,address,items_with_price,lat,lon
61,"3020 LEHIGH ST, ALLENTOWN, PA, 18103",473,40.559727,-75.487806
70,"4849 MCKNIGHT RD, PITTSBURGH, PA, 15237",488,40.528661,-80.008203
110,"4319 PEACH ST, ERIE, PA, 16509",446,42.08933,-80.085535
124,"1321 UNION BLVD, ALLENTOWN, PA, 18109-1572",463,40.625065,-75.435147
133,"3701 NEW ROGERS RD, LEVITTOWN, PA, 19056",0,40.129447,-74.883284
255,"746 SAN SOUCI HWY, WILKES BARRE, PA, 18702",451,41.231926,-75.921241
268,"300 OHIO RIVER BLVD, BADEN, PA, 15005",449,40.633333,-80.229814
294,"2741 LEECHBURG RD, LOWER BURRELL, PA, 15068",467,40.590869,-79.73601
375,"909 PENINSULA DR, ERIE, PA, 16505",447,42.102353,-80.146746
428,"11591 FRANKSTOWN RD, PITTSBURGH, PA, 15235",478,40.465128,-79.828945
442,"5261 LIBRARY RD, BETHEL PARK, PA, 15102",441,40.331891,-80.022367
451,"RTE 83 / CARLISLE RD, CAMP HILL, PA, 17011",410,40.230351,-76.891527
557,"8901 FRANFORD AVE, PHILADELPHIA, PA, 19136",477,40.050367,-75.009526
583,"9970 BUSTLETON AVE, PHILADELPHIA, PA, 19115",521,40.102193,-75.029522
626,"721 CEDAR CREST BLVD, ALLENTOWN, PA, 18104",464,40.598487,-75.527624
714,"10529 PERRY HWY, WEXFORD, PA, 15090",477,40.610166,-80.054025
752,"121 N YORK RD, HATBORO, PA, 19040",429,40.179979,-75.105904
842,"1663 OLD YORK RD, ABINGTON, PA, 19001",427,40.131169,-75.115847
846,"1730 E 3RD ST, WILLIAMSPORT, PA, 17701",407,41.249746,-76.970059
883,"2137 MC ARTHUR RD, WHITEHALL, PA, 18052",443,40.636127,-75.487068
921,"400 LANCASTER AVE, READING, PA, 19602",457,40.320728,-75.934301
922,"531 BALTIMORE PIKE, CLIFTON HEIGHTS, PA, 19018",436,39.926325,-75.306877
925,"321 W TRENTON AVE, MORRISVILLE, PA, 19067",451,40.210447,-74.795079
935,"1739 N KEYSER AVE, SCRANTON, PA, 18508",450,41.44534,-75.669671
1045,"1930 ST RD, BENSALEM, PA, 19020",430,40.09647,-74.94585
1072,"2730 PERKIOMEN AVE, SAINT LAWRENCE, PA, 19606",494,40.327341,-75.881014
1102,"225 MOUNT LEBANON BLVD, CASTLE SHANNON, PA, 15234",420,40.368621,-80.037877
1123,"2270 W HARRISBURG PIKE, MIDDLETOWN, PA, 17057",0,40.201625,-76.770243
1218,"407 E PLANK RD, ALTOONA, PA, 16602",418,40.479858,-78.402449
1322,"209 213 RIDGE PIKE, CONSHOHOCKEN, PA, 19428",460,40.094591,-75.28993
1341,"338 2ND ST PIKE, SOUTHAMPTON, PA, 18966",461,40.166557,-75.046737
1352,"442 E COLLEGE AVE, STATE COLLEGE, PA, 16801-5508",0,40.79853,-77.855963
1367,"710 ADAMS AVE, PHILADELPHIA, PA, 19124",486,40.032346,-75.10653
1409,"114 MOOREHEAD AVE, WEST CONSHOHOCKEN, PA, 19428",435,40.067948,-75.311567
1442,"915 WYOMING AVE, WYOMING, PA, 18644",451,41.301193,-75.853874
1450,"608 WOOD ST, PITTSBURGH, PA, 15222",0,40.440334,-79.998536
1505,"2529 BROAD ST, ERIE, PA, 16501",465,42.123057,-80.04312
1602,"3935 WALNUT ST, PHILADELPHIA, PA, 19104",0,39.954342,-75.202337
1616,"380 MEMORY LN, YORK, PA, 17402",436,39.978156,-76.681949
1637,"5219 FRANKFORD AVE, PHILADELPHIA, PA, 19124",0,40.022695,-75.07759
1643,"2711 MAC DADE BLVD, HOLMES, PA, 19043",468,39.900275,-75.30403
1644,"1510 OAKLAND AVE, INDIANA, PA, 15701",396,40.615709,-79.170665
1674,"334 E STREET RD, FEASTERVILLE, PA, 19047",462,40.146082,-74.99347
1741,"3760 WILLIAM PENN HWY, MONROEVILLE, PA, 15146",446,40.435395,-79.786862
1816,"608 E HIGH, CARLISLE, PA, 17013",431,40.200242,-77.177442
1862,"3708 FORBES AVE (OAKLAND), PITTSBURGH, PA, 15213",426,40.441228,-79.957259
1879,"6470 TORRSDALE, PHILADELPHIA, PA, 19135",450,40.022321,-75.050729
1888,"461 N KEYSTONE AVENUE, SAYRE, PA, 18840",476,41.994308,-76.529836
1897,"1115 SASSAFRAS ST, ERIE, PA, 16501",456,42.122705,-80.085192
1956,"1829 OREGON PIKE, LANCASTER, PA, 17601",442,40.076214,-76.296029
1962,"2109 N BROAD ST, PHILADELPHIA, PA, 19122",568,39.985228,-75.155994
1965,"425 N. ENOLA ROAD, ENOLA, PA, 17025-2128",446,40.300125,-76.928025
1967,"991 CARLISLE ST, HANOVER, PA, 17331",403,39.815911,-76.992822
1980,"430 ELIZABETH AVE, READING, PA, 19605",453,40.384911,-75.92639
1989,"449 SCRANTON CARBONDALE HWY, DICKSON CITY, PA, 18508",0,41.463054,-75.653959
2007,"900 S WASHINGTON AVE, SCRANTON, PA, 18519",448,41.399742,-75.673317
2048,"1201 ONEIL HWY, DUNMORE, PA, 18512",455,41.435377,-75.62031
2073,"1145 N CHURCH STREET, HAZLETON, PA, 18202",456,40.979787,-75.979536
2086,"575 N FRANKLIN ST, LANCASTER, PA, 17602",440,40.048162,-76.293191
2092,"5498 OXFORD AVE, PHILADELPHIA, PA, 19124-1126",0,40.030769,-75.085437
2130,"1075 LINCOLN WAY E, CHAMBERSBURG, PA, 17201",560,39.930162,-77.638919
2159,"927 S HIGH ST, WEST CHESTER, PA, 19380",434,39.942395,-75.590869
2218,"US ROUTE 13 HAINES RD, LEVITTOWN, PA, 19055",443,40.132689,-74.829201
2342,"1060 PARK AVE, MEADVILLE, PA, 16335",422,41.634596,-80.154374
2349,"121 ELECTRIC AVE, LEWISTOWN, PA, 17044",443,40.615026,-77.568578
2385,"3710 PENN AVE, SINKING SPRING, PA, 19608",464,40.325161,-76.016594
2396,"5 ELM ST, OIL CITY, PA, 16301",426,41.432934,-79.707274
2420,"111 S GOVERNOR PRINTZ, LESTER, PA, 19029",0,39.868884,-75.288858
2429,"1820 E LINCOLN HWY, COATESVILLE, PA, 19320",428,39.988543,-75.789567
2444,"24TH & OREGON ST, PHILADELPHIA, PA, 19145",460,39.919394,-75.187246
2449,"4230 TRINDLE RD, CAMP HILL, PA, 17011",448,40.231334,-76.953801
2450,"505 LINCOLN HWY, NORTH VERSAILLES, PA, 15137",0,40.384128,-79.824052
2492,"2001 FREEPORT RD, NATRONA HEIGHTS, PA, 15065",428,40.626405,-79.72217
2507,"1706 WALNUT ST, PHILADELPHIA, PA, 19103",0,39.949865,-75.169395
2596,"3810 PITTSTON AVE, MOOSIC, PA, 18640",0,41.372886,-75.700483
2607,"4206 EDGEMONT AVE, BROOKHAVEN, PA, 19015",428,39.872876,-75.389796
2613,"2553 NAZARETH RD, EASTON, PA, 18042",488,40.688549,-75.252759
2643,"2931 DEKALB PIKE, EAST NORRITON, PA, 19401",431,40.143917,-75.311532
2652,"9 BYERS RTS 119 & 70, NEW STANTON, PA, 15672",442,40.21774,-79.610436
2687,"423 BELLEFONTE AVE, LOCK HAVEN, PA, 17745",434,41.134896,-77.453732
2825,"7613 CASTOR, PHILADELPHIA, PA, 19152",443,40.056397,-75.060584
2837,"RT 39 AT RT 322, HUMMELSTOWN, PA, 17036",449,40.26776,-76.689691
2842,"4235 WALNUT ST, MCKEESPORT, PA, 15132",555,40.320988,-79.835764
2858,"937 N CENTER ST, SOMERSET, PA, 15501",480,40.016904,-79.078694
2891,"421 W MAIN ST, UNIONTOWN, PA, 15401-2652",459,39.906987,-79.741024
2914,"USHY 19 & SUGAR RUN RD, WAYNESBURG, PA, 15370",425,39.895985,-80.169968
2916,"2584 N SUSQUEHANNA TRAIL, SHAMOKIN DAM, PA, 17876",418,40.841678,-76.827094
2922,"63 HADLEY RD, GREENVILLE, PA, 16125",473,41.412282,-80.3589
2924,"517 S STEINWEIR AVE, GETTYSBURG, PA, 17325",412,39.818002,-77.235913
2940,"516 W LANCA STER AVE, STRAFFORD, PA, 19087",0,40.044769,-75.402684
2957,"3137 N BROAD ST, PHILADELPHIA, PA, 19132",566,40.001157,-75.15262
3004,"101 S MCDADE BLVD, DARBY, PA, 19023",430,39.920196,-75.26436
3016,"80 S WYOMING AVE, EDWARDSVILLE, PA, 18704",452,41.258652,-75.901574
3043,"2061 SOUTH QUEEN STREET, YORK, PA, 17403-4806",445,39.937436,-76.692637
3044,"302 E MAIN ST, WAYNESBORO, PA, 17268",556,39.752273,-77.572499
3050,"1007 S 2ND ST, CLEARFIELD, PA, 16830",418,41.010827,-78.449548
3113,"S 3RD ST & RIVERSIDE DR, EASTON, PA, 18042",477,40.687109,-75.209282
3115,"9061 USHY 30, NORTH HUNTINGDON, PA, 15642",447,40.320951,-79.692043
3218,"1940 LYCOMING CREEK RD, WILLIAMSPORT, PA, 17701",431,41.256062,-77.043196
3245,"119-121 BUTLER PIKE, AMBLER, PA, 19002",0,40.153218,-75.225898
3255,"140 N READING, EPHRATA, PA, 17522",431,40.187572,-76.184955
3349,"701 E GAY ST, WEST CHESTER, PA, 19380",434,39.965278,-75.595578
3393,"RTE 255 MILLION DOLLAR HWY, SAINT MARYS, PA, 15857",432,41.411149,-78.560161
3423,"4316 BUFFALO RD, ERIE, PA, 16510",457,42.146042,-80.004448
3501,"720 N CLAUDE A LORD BLVD, POTTSVILLE, PA, 17901",445,40.704293,-76.186929
3507,"PA RTE 611 AND PINE AVE, HORSHAM, PA, 19044",422,40.175038,-75.128715
3637,"2090 LINCOLN HIGHWAY EAST, LANCASTER, PA, 17602",453,40.030381,-76.234969
3665,"330 MAIN ST, STROUDSBURG, PA, 18360",504,40.988453,-75.189334
3670,"13TH & OTTER ST, FRANKLIN, PA, 16323",427,41.399711,-79.830716
3679,"1428 E HIGH ST, POTTSTOWN, PA, 19464",437,40.242917,-75.619695
3698,"2925 FREEPORT RD, PITTSBURGH, PA, 15238",437,40.53923,-79.830173
3736,"9564 WILLIAM PENN HIGHWAY, HUNTINGDON, PA, 16652",418,40.480238,-78.017185
3751,"900 WILKES BARRE TOWNSHIP BLVD, WILKES BARRE, PA, 18702",424,41.224963,-75.878647
3776,"7379 WESTBRANCH HWY, LEWISBURG, PA, 17837",423,40.980375,-76.885258
3783,"180 MONTGOMERY RD, SOUTH WILLIAMSPORT, PA, 17702",433,41.227005,-76.987102
3784,"2167 S ATHERTON ST, STATE COLLEGE, PA, 16801",420,40.785216,-77.830027
3793,"500 LIBERTY AVE, PITTSBURGH, PA, 15222",0,40.441348,-80.003575
3802,"141 MAIN ST, BRADFORD, PA, 16701",426,41.956293,-78.645833
3834,"8500 HENRY AVE, PHILADELPHIA, PA, 19128",429,40.063817,-75.238855
3885,"1890 BETHLEHAM PIKE, FLOURTOWN, PA, 19031",425,40.110584,-75.213295
3886,"707 MAIN STREET, CLARION, PA, 16214-1122",461,41.213429,-79.382002
3911,"123 S BREEZEWOOD RD, BREEZEWOOD, PA, 15533",553,39.998588,-78.239981
3922,"6606 NEW FALLS RD, LEVITTOWN, PA, 19056",452,40.151127,-74.859362
3945,"200 W MAIN ST, GROVE CITY, PA, 16127",437,41.157927,-80.089403
4072,"825 BEAVER GRADE RD, MOON TOWNSHIP, PA, 15108",430,40.516946,-80.219606
4121,"4317 NORTHERN PIKE, MONROEVILLE, PA, 15146",458,40.434495,-79.751797
4134,"727 RT 113, SOUDERTON, PA, 18964",498,40.3163,-75.308881
4202,"2801 COTTMAN AVE, PHILADELPHIA, PA, 19149-1420",456,40.044473,-75.053345
4207,"945 NEW BERWICK HWY, BLOOMSBURG, PA, 17815",449,41.0051,-76.436487
4220,"2509 ELWOOD RD, NEW CASTLE, PA, 16101",447,40.970142,-80.311786
4225,"1650 LIMEKLIN PIKE, DRESHER, PA, 19025",457,40.144085,-75.16762
4241,"2090 LEBANON CHURCH RD, WEST MIFFLIN, PA, 15122",436,40.347947,-79.945316
4258,"1187 TEXAS PALMYRA HIGHWAY, HONESDALE, PA, 18431",460,41.553394,-75.225179
4277,"9123 WEST RIDGE RD, GIRARD, PA, 16417",447,42.009804,-80.301764
4294,"1500 9TH AVENUE STATION MALL, ALTOONA, PA, 16602",418,40.511585,-78.401743
4295,"1127 NORTHERN BLVD, CLARKS SUMMIT, PA, 18411",460,41.486469,-75.695099
4296,"525 SCRANTON CARBONDALE HWY, EYNON, PA, 18433",451,41.502255,-75.580831
4297,"RT 100/SWEDSFORD RD, EXTON, PA, 19341",499,40.033592,-75.632916
4353,"561 N MAIN ST, DOYLESTOWN, PA, 18901",517,40.322711,-75.130079
4354,"7702 MC KNIGHT RD, PITTSBURGH, PA, 15237",479,40.546367,-80.016366
4355,"901 E MAIN ST, PALMYRA, PA, 17078",447,40.314099,-76.583017
4428,"2821 E COLLEGE AVE, STATE COLLEGE, PA, 16801",427,40.829971,-77.804118
4429,"845 ROSTRAUER RD, BELLE VERNON, PA, 15012",475,40.137193,-79.843611
4434,"1432 S 4TH ST, ALLENTOWN, PA, 18103",463,40.585989,-75.460678
4445,"3725 ARAMINGO AVE, PHILADELPHIA, PA, 19137",492,39.99463,-75.093707
4449,"RT 73/PHILADELPHIA AVE, GILBERTSVILLE, PA, 19525",464,40.326546,-75.619884
4478,"3524 W CHESTER PIKE, NEWTOWN SQUARE, PA, 19073",0,39.985163,-75.39593
4498,"420 S FRANKLIN ST, TITUSVILLE, PA, 16354",447,41.623478,-79.672897
4527,"2033 S BROAD ST, PHILADELPHIA, PA, 19148",0,39.924614,-75.169415
4556,"2424 WILMINGTON RD, NEW CASTLE, PA, 16105",448,41.027644,-80.353377
4598,"111 PLAZA DR, JOHNSTOWN, PA, 15905",435,40.323326,-78.955615
4619,"1176 HARRISBURG PIKE, CARLISLE, PA, 17013",434,40.232627,-77.142506
4620,"ONE POPLAR ST, PITTSBURGH, PA, 15205",415,40.427424,-80.053412
4625,"1101 CHESTNUT ST, EMMAUS, PA, 18049",493,40.529028,-75.506629
4647,"101 HOFFMAN BLVD, DUQUESNE, PA, 15110",569,40.384225,-79.863302
4716,"1201 N BROAD ST, PHILADELPHIA, PA, 19122",0,39.972099,-75.158826
4808,"RT 309 FRANKLIN STREET, SHAVERTOWN, PA, 18708",454,41.322314,-75.942482
4817,"120 PENN CIR W, PITTSBURGH, PA, 15206",457,40.46308,-79.926919
4831,"314 W COLUMBUS, CORRY, PA, 16407",445,41.934866,-79.652691
4837,"1240 BRISTOL PIKE, BENSALEM, PA, 19020",457,40.07164,-74.966169
4864,"227 E LINCOLN HWY, DOWNINGTOWN, PA, 19335",503,40.007621,-75.700651
4865,"100 BOBBY VINTON BLVD, CANONSBURG, PA, 15317",443,40.263549,-80.172296
4937,"#3 NEW GARDEN SHOPPING CENTER, KENNETT SQUARE, PA, 19348",452,39.842364,-75.729778
4939,"4557 OHIO RIVER BLVD, PITTSBURGH, PA, 15202",478,40.492163,-80.062165
4940,"120 N MAIN ST, MANSFIELD, PA, 16933",448,41.8104,-77.078887
4975,"333 E KING ST, SHIPPENSBURG, PA, 17257",430,40.054245,-77.514379
4998,"1875 W FRONT ST, BERWICK, PA, 18603",0,41.048065,-76.267343
5010,"940 WAYNE AVE, INDIANA, PA, 15701",395,40.615144,-79.156281
5050,"850 EISENHOWER BLVD, HARRISBURG, PA, 17111",448,40.240526,-76.805128
5072,"3820 WM PENN HWY, MURRYSVILLE, PA, 15668",476,40.427439,-79.699094
5155,"RT 10 & PENN TPKE PO BOX 297, MORGANTOWN, PA, 19543",439,40.158108,-75.891362
5162,"1257 BLAKESLEE BLVD, LEHIGHTON, PA, 18235",438,40.814799,-75.734335
5180,"4214 BROWNSVILLE RD, BRENTWOOD, PA, 15227",419,40.364627,-79.9839
5182,"2891 PHILADELPHIA AVE, CHAMBERSBURG, PA, 17201",562,39.972258,-77.632735
5225,"6896 HAMILTON BLVD, TREXLERTOWN, PA, 18087",462,40.55127,-75.593937
5242,"950 2ND STR PIKE, RICHBORO, PA, 18954",444,40.213555,-75.011158
5316,"1036 S BROADWAY, WIND GAP, PA, 18091",486,40.836097,-75.297208
5342,"US ROUTE 322 WEST, PHILIPSBURG, PA, 16866",425,40.903246,-78.232155
5364,"12 CHARLESTON ST, WELLSBORO, PA, 16901",449,41.750926,-77.29664
5388,"1171 N 9TH ST, STROUDSBURG, PA, 18360",497,40.986749,-75.224836
5433,"301 W MAIN ST, MONONGAHELA, PA, 15063",465,40.202971,-79.925433
5441,"RTE 50 RACEWAY PLAZA WASHINGTON PIKE, HEIDELBERG, PA, 15106",421,40.3863,-80.093111
5531,"571 SUSQUEHANNA BLVD, HAZLE TOWNSHIP, PA, 18202",454,40.981301,-76.017684
5532,"120 E PLUM ST, EDINBORO, PA, 16412",447,41.875718,-80.129197
5571,"500 GREATER BUTLER MART, BUTLER, PA, 16001",450,40.842953,-79.918668
5592,"222 E MAIN ST, COLLEGEVILLE, PA, 19426",469,40.185038,-75.451145
5638,"1043 BRIARSDALE RD, HARRISBURG, PA, 17109",450,40.278009,-76.821769
5640,"3925 NAZARETH PIKE, BETHLEHEM, PA, 18017",469,40.67552,-75.344847
5645,"749 E LINCOLN HWY, PENNDEL, PA, 19047",486,40.164285,-74.902364
5657,"RT 309 & CRESTWOOD DR, MOUNTAIN TOP, PA, 18707",453,41.143554,-75.900468
5674,"7901 OXFORD AVE, PHILADELPHIA, PA, 19111",456,40.074102,-75.084368
5723,"473 MAIN ST, WALNUTPORT, PA, 18088",441,40.757416,-75.594435
5737,"960 SCHUYLEKILL MALL RD, FRACKVILLE, PA, 17931",456,40.770304,-76.222504
5834,"2518 W LIBERTY RD, PITTSBURGH, PA, 15226",423,40.398794,-80.026418
5837,"FRANKLIN VLG SHPG CTR, KITTANNING, PA, 16201",425,40.81247,-79.548174
5842,"RT 202 & 1, CONCORDVILLE, PA, 19331",432,39.879156,-75.545939
5843,"324 W BRIDGE ST, NEW HOPE, PA, 18938-1432",522,40.363557,-74.966217
5897,"502 POTTSTOWN AVE, PENNSBURG, PA, 18073",466,40.39307,-75.501937
5901,"1414 TILGHMAN ST, ALLENTOWN, PA, 18102",443,40.60734,-75.491614
5915,"2546 CONSTITUTION BLVD, BEAVER FALLS, PA, 15010",448,40.772803,-80.372978
5916,"3723 WASHINGTON RD, MC MURRAY, PA, 15317",476,40.277908,-80.123986
5917,"3400 CONRAD WEISER PKY, WOMELSDORF, PA, 19567",461,40.369963,-76.190087
5972,"131 PLEASANT DR, ALIQUIPPA, PA, 15001",447,40.634363,-80.317707
6027,"5590 ALLENTOWN BLVD, HARRISBURG, PA, 17112",452,40.319938,-76.793677
6076,"311 CENTERVILLE RD, LANCASTER, PA, 17601",450,40.050879,-76.394325
6078,"RT 11 & I 81, HALSTEAD, PA, 18822",468,41.964809,-75.740725
6082,"481 HYDE PARK ROAD, LEECHBURG, PA, 15656",409,40.605282,-79.605132
6086,"260 W SWEDEFORD RD, BERWYN, PA, 19312",430,40.070722,-75.44271
6135,"3100 W ALLEGHENY AVE, PHILADELPHIA, PA, 19132",565,40.004814,-75.179781
6141,"ROUTE 19, RD 7, MARS, PA, 16046",433,40.671864,-80.098671
6172,"7855 PERRY HWY, ERIE, PA, 16509",446,42.071143,-80.039903
6185,"RT 940 & I 80, WHITE HAVEN, PA, 18661",443,41.071491,-75.702194
6200,"828 W MAIN ST, NEW HOLLAND, PA, 17557",443,40.092685,-76.116924
6202,"2112 BUMBLE BEE, MECHANICSBURG, PA, 17055",435,40.176157,-76.985402
6219,"14 S MAIN ST, HELLERTOWN, PA, 18055",464,40.5673,-75.340139
6254,"1001 N. 9TH STREET, READING, PA, 19604",0,40.350678,-75.919356
6255,"2409 GOLDEN MIKE HWY RT 286, PLUM, PA, 15239",0,40.464668,-79.705804
6311,"ROUTE 819 SOUTH, MOUNT PLEASANT, PA, 15666",428,40.126043,-79.552131
6349,"120 W OREGON, PHILADELPHIA, PA, 19148",472,39.913805,-75.151145
6492,"971 WILLIAM FLYNN HWY, GLENSHAW, PA, 15116-2633",475,40.513364,-79.95166
6499,"897 W BROADWAY ST, RED LION, PA, 17356",447,39.896932,-76.622358
6500,"75 MARKET ST, WARREN, PA, 16365",445,41.843008,-79.145376
6596,"2ND & LEHIGH AVE, PHILADELPHIA, PA, 19133",472,39.991105,-75.135355
6636,"1434 MANHEIM PIKE, LANCASTER, PA, 17601",414,40.070847,-76.333503
6680,"985 E PITTSBURGH ST, GREENSBURG, PA, 15601",434,40.303522,-79.510756
6697,"430 STATE ST, ERIE, PA, 16501",0,42.130431,-80.086466
6752,"I 80 & RT 54, DANVILLE, PA, 17821",436,40.993624,-76.64012
6767,"16830 CONNEAUT LAKE RD, MEADVILLE, PA, 16335",423,41.624118,-80.199633
6778,"430 PENN AVE, WILKINSBURG, PA, 15221",454,40.444645,-79.888658
6790,"1284 S MARKET ST, ELIZABETHTOWN, PA, 17022",431,40.139354,-76.589438
6822,"3023 WASHINGTON PIKE, BRIDGEVILLE, PA, 15017",414,40.353721,-80.11461
6868,"161 W TOGA ST, TUNKHANNOCK, PA, 18657",463,41.542324,-75.959323
6918,"1551 S VALLEY FORGE RD, LANSDALE, PA, 19446",462,40.229786,-75.31334
6919,"22 W GIRARD AVE, PHILADELPHIA, PA, 19123",521,39.968354,-75.135705
6986,"101-1423 S 52ND ST, PHILADELPHIA, PA, 19139",491,39.95814,-75.225038
7045,"757 E CUMBERLAND ST, LEBANON, PA, 17042",449,40.343079,-76.397716
7046,"301 WILLOW VALLEY SQ, LANCASTER, PA, 17602",422,39.992521,-76.284973
7057,"RT 19 & I 80, MERCER, PA, 16137",0,41.196036,-80.241945
7206,"190 STATE ST, BEAVER, PA, 15009",452,40.689194,-80.319984
7213,"5328 LINCON HWY, GAP, PA, 17527",424,39.991651,-76.020426
7246,"801 ALLEGHENY AVE, PITTSBURGH, PA, 15233",440,40.450829,-80.019001
7247,"705 MEMORIAL BLVD, CONNELLSVILLE, PA, 15425",463,40.024168,-79.591577
7301,"505 SMITHFIELD ST, PITTSBURGH, PA, 15219",0,40.440323,-79.998521
7304,"142 S GEORGE ST, YORK, PA, 17401",475,39.959895,-76.726888
7306,"6040 YORK RD, NEW OXFORD, PA, 17350",401,39.870723,-77.029691
7437,"4245 N GEORGE ST EXTD, MANCHESTER, PA, 17345",411,40.046946,-76.72354
7445,"1630 PENN AVE, PITTSBURGH, PA, 15222",0,40.449329,-79.986283
7560,"624-630 BROWNSVILLE RD, MOUNT OLIVER, PA, 15210",449,40.410177,-79.990845
7641,"1788 COLUMBIA AVE, COLUMBIA, PA, 17512-9508",445,40.031273,-76.47388
7683,"6380 STUEBENVILLE PIKE, CRAFTON, PA, 15205",453,40.448301,-80.155585
7705,"82 FORT COUCH RD, PITTSBURGH, PA, 15241",427,40.338068,-80.050782
7717,"1625 7TH AVE, BEAVER FALLS, PA, 15010",455,40.757638,-80.319712
7793,"4015 E MARKET ST, YORK, PA, 17402",448,39.992722,-76.636715
7928,"1 LEMOYNE DR, LEMOYNE, PA, 17043",448,40.250511,-76.914481
7939,"721 BUCHANAN TRL E, GREENCASTLE, PA, 17225",560,39.786693,-77.711214
7960,"1265 OLD RT 220, DUNCANSVILLE, PA, 16635",418,40.435656,-78.41418
7970,"8TH & HILL AVE, WYOMISSING, PA, 19610",452,40.336623,-75.954316
8062,"12120  RT 30 NORWIN TOWN SQ, NORTH HUNTINGDON, PA, 15642",425,40.332078,-79.742173
8071,"5587 OLD YORK RD, PHILADELPHIA, PA, 19141",0,40.03858,-75.14442
8110,"106 EAGLEVIEW BLVD, EXTON, PA, 19341",501,40.049657,-75.662234
8261,"1801 TORRESDALE AVE, PHILADELPHIA, PA, 19124",550,40.006304,-75.094575
10029,"427 SUEBERG ROAD, PO BOX 327, PINE GROVE, PA, 17963",452,40.534483,-76.42629
10064,"318 MC KEAN AVE, CHARLEROI, PA, 15022",463,40.13735,-79.896053
10195,"56 ROBINHOOD DR, ETTERS, PA, 17319",421,40.153867,-76.819676
10212,"905 WALNUT BOTTOM RD, CARLISLE, PA, 17013",434,40.185962,-77.210809
10246,"67 W STATE ST, SHARON, PA, 16146-1301",457,41.232589,-80.510139
10256,"4403 N FRONT ST, HARRISBURG, PA, 17110",452,40.325063,-76.898763
10260,"6361 PENN AVE, PITTSBURGH, PA, 15206",430,40.458783,-79.918492
10327,"7911-17 OGONTZ AVE, PHILADELPHIA, PA, 19150",545,40.072964,-75.157665
10333,"249 ALLEGHENY BLVD, BROOKVILLE, PA, 15825",457,41.17392,-79.098905
10362,"210 W KING ST, LANCASTER, PA, 17601",440,40.037244,-76.308628
10395,"2066 E STATE ST, HERMITAGE TWP, PA, 16148",463,41.23288,-80.472021
10398,"12185 E MAIN RD, NORTH EAST, PA, 16428",446,42.231782,-79.783128
10545,"7500 CITY LINE, PHILADELPHIA, PA, 19151",457,39.980081,-75.268621
10628,"651 NUT RD, PHOENIXVILLE, PA, 19460",432,40.132316,-75.534345
10698,"1257 LANCASTER AVE, BRYN MAWR, PA, 19010",426,40.026812,-75.328408
10707,"1253 MCDADE BLVD, WOODLYN, PA, 19094",431,39.878701,-75.344206
10749,"1232 WESTCHESTER PIKE, HAVERTOWN, PA, 19083",429,39.972507,-75.318433
10766,"3808 E LINCOLN HWY, THORNDALE, PA, 19372",433,39.995692,-75.745329
10848,"6526 ROUTE 22, DELMONT, PA, 15626",422,40.400993,-79.585086
10870,"15 5TH ST, ELLWOOD CITY, PA, 16117",447,40.861944,-80.286911
10893,"84 LANCASTER AVE, FRAZER, PA, 19355",427,40.042656,-75.529528
10903,"2 PARKSIDE CT, MIFFLINTOWN, PA, 17059",441,40.581344,-77.370187
10913,"2101 W LEHIGH, PHILADELPHIA, PA, 19132",561,39.995854,-75.166119
10918,"75 BRISTOL COMMERCE PARK, BRISTOL, PA, 19007",457,40.1005,-74.869434
10930,"ROUTE 22, EBENSBURG, PA, 15931",421,40.468237,-78.757869
11034,"1755 COLUMBIA AVE, LANCASTER, PA, 17603",425,40.038473,-76.351686
11217,"RT 209 & 115, BRODHEADSVILLE, PA, 18322",497,40.922096,-75.399965
11221,"9996 ROOSEVELT BLVD, PHILADELPHIA, PA, 19115",0,40.093892,-75.017161
11289,"133 S 69TH ST, UPPER DARBY, PA, 19082",431,39.957409,-75.257655
11293,"115 LOGANS FERRY RD, LOWER BURRELL, PA, 15068",460,40.551872,-79.756922
11334,"328 S MAIN ST, SLIPPERY ROCK, PA, 16057-1249",413,41.06159,-80.054174
11448,"RTE 590 VILLAGE CENTER AT HAMLIN, HAMLIN, PA, 18436",452,41.404432,-75.417505
11503,"RT 54 & RT 309, TAMAQUA, PA, 18252",452,40.82351,-75.981512
11533,"235 MEADOWLANDS BLVD, WASHINGTON, PA, 15301",452,40.223689,-80.21048
11555,"ROUTE 339 AND I 80, MIFFLINVILLE, PA, 18631",457,41.026499,-76.317194
11571,"4605 JONESTOWN RD, HARRISBURG, PA, 17109",421,40.300867,-76.814717
11582,"RT 940 & OAK STREET SHOPPING CTR, MOUNT POCONO, PA, 18344",501,41.12259,-75.372718
11608,"4272 COUNTY LINE RD, CHALFONT, PA, 18914",429,40.265876,-75.226722
11703,"1294 W CHESTNUT ST, WASHINGTON, PA, 15301",457,40.165395,-80.270972
11722,"1615 N ATHERTON ST, STATE COLLEGE, PA, 16803",419,40.808525,-77.895766
11802,"3347 BLACK GAP RD, CHAMBERSBURG, PA, 17201",560,39.96235,-77.577523
11881,"150 EAST HAMPTON, WILKES BARRE, PA, 18701",454,41.241025,-75.881075
11988,"274 W MAIN ST, HARLEYSVILLE, PA, 19438",463,40.266803,-75.376321
12018,"7200 PEACH ST, ERIE, PA, 16509",457,42.053152,-80.086596
12021,"230 MONTGOMERY MALL, NORTH WALES, PA, 19454",0,40.235193,-75.245127
12062,"5370 PERKIOMEN AVENUE, READING, PA, 19606-9530",452,40.298659,-75.847656
12116,"603 RT 739, HAWLEY, PA, 18428",475,41.356154,-75.05476
12137,"110 MOUNT LAUREL PLZ, LATROBE, PA, 15650",447,40.284666,-79.389437
12151,"363 PERRY HWY, PITTSBURGH, PA, 15229",470,40.517558,-80.029286
12153,"755 STHY 405, HUGHESVILLE, PA, 17737",432,41.23027,-76.73474
12182,"PITTSBURGH INTL AIR-MAIN TERMINAL, PITTSBURGH, PA, 15231",0,40.495693,-80.256305
12183,"PITTSBURGH INTL AIR-TERMINAL SATELLITE T, PITTSBURGH, PA, 15231",0,40.495075,-80.256157
12238,"95 BEDFORD SQUARE PLZ, EVERETT, PA, 15537",563,40.025341,-78.446484
12259,"ONE WEST VALLEY AVENUE, ELYSBURG, PA, 17824",432,40.860479,-76.549965
12300,"3501 PAXTON ST, HARRISBURG, PA, 17111",0,40.25188,-76.829621
12342,"1129 SCALP AVE, JOHNSTOWN, PA, 15901",460,40.280377,-78.861939
12375,"859 E DUBOIS AVE, DU BOIS, PA, 15801",413,41.124748,-78.737881
12415,"70 ALLEGHENY RIVER BLVD, VERONA, PA, 15147",463,40.496755,-79.844954
12608,"708 LINCOLN WAY E, MCCONNELLSBURG, PA, 17233",561,39.930017,-77.990181
12634,"5820 NITTANY VALLEY DR, LAMAR, PA, 16848",426,41.033058,-77.516941
12669,"1891 S STATE RD, UPPER DARBY, PA, 19082",430,39.959791,-75.287515
12857,"501 FRANKLIN MILL CIR, PHILADELPHIA, PA, 19154",458,40.088491,-74.965013
12858,"1601 CHRISTOPHER COLUMBUS BLVD, PHILADELPHIA, PA, 19148",441,39.923923,-75.142546
12862,"3761 PETERS MOUNTAIN RD, HALIFAX, PA, 17032",433,40.454811,-76.925804
12962,"898 N USHY 15, DILLSBURG, PA, 17019",430,40.131475,-77.018457
12963,"711 LANCASTER RD, MANHEIM, PA, 17545",432,40.149239,-76.380455
13007,"530 GALLARIA DR, JOHNSTOWN, PA, 15904",457,40.297312,-78.834841
13079,"USHY 522 & USHY 22, LEWISTOWN, PA, 17044",0,40.582395,-77.613407
13543,"STHY 61, SHAMOKIN, PA, 17866",431,40.790326,-76.538228
13552,"2600 PLANK ROAD COMMONS-W*M #2049, ALTOONA, PA, 16602",0,40.455485,-78.406001
13663,"24 MCDONALD'S LANE, MC ELHATTAN, PA, 17748",424,41.153118,-77.354147
13696,"6199 ROUTE 30, GREENSBURG, PA, 15601",404,40.305702,-79.591215
13752,"RT 6 & 209, MILFORD, PA, 18337",434,41.35172,-74.733775
13827,"3100 OAKLAND AVE, INDIANA, PA, 15701",393,40.600876,-79.194721
13832,"3592 PORTAGE ST, PORTAGE, PA, 15946",367,40.394666,-78.671849
13860,"RT 879 AND I 80, CLEARFIELD, PA, 16830",425,41.036216,-78.400812
13928,"BRADFORD TOWN CENTER, TOWANDA, PA, 18848",450,41.768905,-76.422885
13947,"RTE 30 EAST -WESTMORELAND MALL, GREENSBURG, PA, 15601",0,40.300797,-79.508197
13958,"189 SHOEMAKER RD, POTTSTOWN, PA, 19464",428,40.252745,-75.65977
13961,"635 S TROOPER RD, AUDUBON, PA, 19403",429,40.128063,-75.405195
13963,"5857 EASTON ROAD, PIPERSVILLE, PA, 18947",462,40.386278,-75.145927
14038,"9 SELLERVILLE DR, EAST STROUDSBURG, PA, 18301",498,41.055671,-75.092739
14220,"942 MARKET ST, PHILADELPHIA, PA, 19107",0,39.951344,-75.156607
14267,"5500 POTTSVILLE PIKE, LEESPORT, PA, 19533",446,40.443088,-75.953881
14276,"9090 WILLIAM PENN HWY, CRESSON, PA, 16630",421,40.460006,-78.595458
14278,"121 EAST SHIRLEY STREET, MOUNT UNION, PA, 17066",419,40.382384,-77.878357
14279,"ROUTE 219, BROCKWAY, PA, 15824",371,41.2454,-78.787119
14280,"102 N FINDLEY ST, PUNXSUTAWNEY, PA, 15767",458,40.943874,-78.97094
14384,"2 N WESTEND BLVD, QUAKERTOWN, PA, 18951",464,40.444085,-75.359409
14385,"3708 EASTON NAZARETH HWY, EASTON, PA, 18045",448,40.715486,-75.285281
14419,"RT 34 & SHORTCUT RD, NEWPORT, PA, 17074",440,40.492739,-77.114059
14421,"494 GROW AVE, MONTROSE, PA, 18801",461,41.835971,-75.865075
14507,"29 & GRAYS FERRY AVE, PHILADELPHIA, PA, 19146",481,39.939465,-75.191225
14514,"4200 N BROAD ST, PHILADELPHIA, PA, 19140",528,40.01737,-75.149889
14516,"5020 CITY LINE AVE, PHILADELPHIA, PA, 19131",456,39.999466,-75.2294
14527,"61 N MAIN ST, UNION CITY, PA, 16438",445,41.900731,-79.845136
14566,"35 BOUND AVE, MILTON, PA, 17847",420,41.019422,-76.853699
14951,"300 MARKET PLACE DR, OAKDALE, PA, 15071",442,40.440902,-80.239349
14963,"29 E CHELTEN AVE, PHILADELPHIA, PA, 19144",500,40.036686,-75.174316
15207,"406 E 25TH AVE, ALTOONA, PA, 16601",419,40.535334,-78.402081
15299,"PARCEL F / LYCOMING MALL, MUNCY, PA, 17756",432,41.243982,-76.829763
15521,"2601 MCARTHUR RD (W*M #2145), WHITEHALL, PA, 18052",0,40.645103,-75.488117
15522,"1601 S COLUMBUS BLVD (W*M #2141), PHILADELPHIA, PA, 19148",421,39.926222,-75.141272
15788,"1014 WESLEY DR, MECHANICSBURG, PA, 17055",442,40.211265,-76.961301
15858,"4660 RT 209, ELIZABETHVILLE, PA, 17023",432,40.559013,-76.788959
15862,"350 EISENHOWER DR, HANOVER, PA, 17331",406,39.825386,-76.983317
15951,"2333 WELSH ROAD, LANSDALE, PA, 19446",455,40.263725,-75.317924
15965,"800 TOWN CENTER, DOYLESTOWN, PA, 18901",0,40.296413,-75.18908
15971,"999 JEFFERSON AVE, WASHINGTON, PA, 15301",458,40.181765,-80.264644
15988,"RT 114 & SHADOW OAKS DR, MECHANICSBURG, PA, 17055",414,40.248773,-77.030012
16047,"1511 SCRANTON CARBONDALE HWY, DICKSON CITY, PA, 18508",449,41.471035,-75.637589
16067,"121 WINTER RD-WM#2287, NEW CASTLE, PA, 16101",0,41.009323,-80.394301
16068,"250 SUMMIT PARK DR (W*M #2300), PITTSBURGH, PA, 15275",0,40.447317,-80.176271
16198,"802 N EAGLE VALLEY RD, MILESBURG, PA, 16853",425,40.957659,-77.766788
16244,"475 S OXFORD VALLEY RD, FAIRLESS HILLS, PA, 19030",425,40.171549,-74.851537
16257,"RT 30 & 74TH (W*M #2205), YORK, PA, 17404",0,39.968383,-76.772715
16260,"430 N QUEEN ST, LITTLESTOWN, PA, 17340",399,39.749745,-77.093772
16316,"LEADER HEIGHTS US I-83, YORK, PA, 17403",447,39.910693,-76.70441
16375,"1758 N CENTER AVE, SOMERSET, PA, 15501",478,40.042096,-79.074849
16569,"1902 LEESBURG, GROVE CITY, PA, 16127",426,41.143904,-80.158063
16575,"1611 BETHELEHEM PIKE, HATFIELD, PA, 19440",497,40.288169,-75.265629
16849,"2610 EASTON AVE, BETHLEHEM, PA, 18017",466,40.643841,-75.345975
16930,"761 AIRPORT RD (WAL*MART #2255), HAZLE TOWNSHIP, PA, 18202",0,40.986649,-76.01259
17107,"185 WILSON RD, BENTLEYVILLE, PA, 15314",465,40.130093,-80.001926
17301,"1202 W MAPLE ST, LEBANON, PA, 17046",441,40.350011,-76.432817
17302,"493 W PEN AVE, CLEONA, PA, 17042",448,40.33614,-76.484491
17447,"2 ROBERTS RD, GRINDSTONE, PA, 15442",470,40.011865,-79.865486
17674,"3003 HEIGHT RD, ALIQUIPPA, PA, 15001",449,40.570474,-80.255992
17688,"5060 STHY 873, SCHNECKSVILLE, PA, 18078",438,40.678216,-75.614351
17733,"25 E CHESTNUT ST, MIFFLINBURG, PA, 17844",421,40.921469,-77.035953
17771,"RT 21 KMART PLAZA, UNIONTOWN, PA, 15401",466,39.902759,-79.75294
17808,"2014 LINCOLN AVE, LATROBE, PA, 15650",452,40.307535,-79.371665
17811,"1090 YORK RD, GETTYSBURG, PA, 17325",408,39.84164,-77.206933
17812,"655 LOMBARD ST, RED LION, PA, 17356",446,39.915696,-76.63085
17813,"1295 MILLERSVILLE PIKE, LANCASTER, PA, 17603",441,40.027261,-76.326144
17822,"2300 E LINCOLN HWY, LANGHORNE, PA, 19047",0,40.183761,-74.881566
17868,"1448 BALTIMORE ST, HANOVER, PA, 17331",408,39.770847,-76.959866
17914,"2537 WEST STATE ST, NEW CASTLE, PA, 16101",446,41.01122,-80.394065
18184,"101 S 25TH ST, HARRISBURG, PA, 17111",453,40.271467,-76.844257
18186,"720 DIVISION ST, HARRISBURG, PA, 17110",454,40.292099,-76.892619
18204,"981 E MAIN ST, SCHUYLKILL HAVEN, PA, 17972",447,40.640927,-76.157296
18323,"411 S MAIN ST, OLD FORGE, PA, 18518",454,41.368547,-75.737854
18439,"101 LIMEKILN RD, NEW CUMBERLAND, PA, 17070",396,40.212456,-76.878904
18474,"600 PINE HOLLOW RD, MCKEES ROCKS, PA, 15136",457,40.473952,-80.095718
18789,"219 HAYNES, JOHNSTOWN, PA, 15901",403,40.320586,-78.919325
19061,"2752 MACARTHUR RD, WHITEHALL, PA, 18052",0,40.64662,-75.495486
19340,"7845 LINGLESTOWN RD, HARRISBURG, PA, 17112",452,40.352618,-76.725393
19463,"534 SHREWSBURY COMMONS AVE, SHREWSBURY, PA, 17361-1612",412,39.770639,-76.670352
19513,"11924 BUCHANAN TRL W, MERCERSBURG, PA, 17236",558,39.835453,-77.906015
19852,"10541 ROUTE 6N, ALBION, PA, 16401",446,41.890768,-80.350976
19946,"1199 BETHLEHEM PIKE N PA RT 309, NORTH WALES, PA, 19454",493,40.209598,-75.224248
19989,"295 W LINCOLN, MYERSTOWN, PA, 17067",449,40.37812,-76.310991
20035,"RT 420 & 13, PROSPECT PARK, PA, 19076",460,39.881886,-75.306348
20050,"2326 MARKET ST, LINWOOD, PA, 19061",434,39.834319,-75.424938
20082,"PA RT 502 & PA RT 435, MOSCOW, PA, 18444",0,41.307961,-75.514418
20113,"273/227 W MAIN, NORRISTOWN, PA, 19401",435,40.116429,-75.348007
20114,"1232 FRANKLIN MILLS CIR, PHILADELPHIA, PA, 19154",0,40.087648,-74.962112
20160,"104 S MAIN ST, COUDERSPORT, PA, 16915",422,41.77087,-78.021671
20209,"180 MARKET ST, NESQUEHONING, PA, 18240",422,40.86115,-75.818688
20302,"575 MORGANTOWN STREET, UNIONTOWN, PA, 15401",472,39.883933,-79.734874
20556,"500 UNION STREET LUZERNE, LUZERNE, PA, 18709",453,41.282393,-75.89664
20752,"4363 BUSINESS 220 STE 2, BEDFORD, PA, 15522",566,40.053041,-78.511477
20871,"2601 W CHESTER PIKE, BROOMALL, PA, 19008",428,39.982434,-75.361434
20990,"2899 WHITEFORD RD UNIT 260, YORK, PA, 17402",0,39.989316,-76.674769
21138,"503 CONSTITUTION AVE, PERKASIE, PA, 18944",503,40.364256,-75.297739
21239,"908 E MAIN ST, ROARING SPRING, PA, 16672",418,40.335719,-78.391411
21440,"RTE 220 AND GOODS LANE LOGAN VALLY MALL, ALTOONA, PA, 16602",0,40.469494,-78.409416
21675,"3860 HAMILTON BLVD, ALLENTOWN, PA, 18103",472,40.574503,-75.532775
21840,"PA RT 100 & RT 724, POTTSTOWN, PA, 19464",0,40.234992,-75.662252
22089,"355 LINCOLN AVE, EAST STROUDSBURG, PA, 18504",0,40.990412,-75.183125
22107,"3141 CARLISLE RD, DOVER, PA, 17406",486,39.983901,-76.822231
22266,"1725 QUENTIN RD, LEBANON, PA, 17042",440,40.313299,-76.424998
22492,"549 CLARITON BLVD, PLEASANT HILLS, PA, 15122",422,40.331689,-79.945348
22616,"10 RESORT PLZ, BLAIRSVILLE, PA, 15717",411,40.443126,-79.229589
22700,"100 E LINCOLN HWY, FAIRLESS HILLS, PA, 19030",0,40.180312,-74.86921
22804,"5550 CARLISLE PIKE, MECHANICSBURG, PA, 17050",429,40.240814,-76.987064
22809,"60 ARSENAL RD, YORK, PA, 17405",442,39.983698,-76.736592
23059,"491 ELMIRA ST, TROY, PA, 16947",451,41.789396,-76.78055
23151,"2211 STENTON AVE, PHILADELPHIA, PA, 19141",556,40.055862,-75.157837
23267,"1703 ROUTE 228 CRANBERRY COMMONS, CRANBERRY TOWNSHIP, PA, 16066",435,40.686173,-80.08256
23287,"990 LITITZ PIKE, LITITZ, PA, 17543",447,40.130241,-76.305578
23378,"4163 WHITAKER AVE, PHILADELPHIA, PA, 19124",553,40.012382,-75.118959
23392,"R R 3 BOX 182A PERKINS ROAD, CLARION, PA, 16214",457,41.190456,-79.395959
23433,"914 S BROAD ST, PHILADELPHIA, PA, 19146",0,39.939428,-75.166777
23509,"1617 JFK BLVD., PHILADELPHIA, PA, 19103",0,39.953656,-75.166851
23510,"442 WYANDOTTE ST, SOUTH BETHLEHEM, PA, 18015",480,40.609145,-75.385566
23554,"2395 YORK RD, JAMISON, PA, 18929",458,40.260093,-75.08595
23555,"900 COMMONS DRIVE, PARKESBURG, PA, 19365",426,39.983139,-75.933937
23704,"1880 HEMPSTEAD RD, LANCASTER, PA, 17601",435,40.051827,-76.255586
23832,"1001 TRINITY PT, WASHINGTON, PA, 15301",458,40.185441,-80.222025
24028,"2725 N MERIDIAN BLVD, WYOMISSING, PA, 19610",469,40.356142,-75.982787
24143,"310 N LEWIS RD, ROYERSFORD, PA, 19468",432,40.194585,-75.53362
24144,"1401 ARCH ST, PHILADELPHIA, PA, 19102",0,39.954608,-75.163381
24334,"400 E WATERFRONT DR, HOMESTEAD, PA, 15120",571,40.412093,-79.909881
24444,"200 WALMART PLZ, GIBSONIA, PA, 15044",450,40.621498,-79.944107
24446,"298 21ST ST, WINDBER, PA, 15963",416,40.229494,-78.828574
24527,"3946 BROADHEAD RD, MONACA, PA, 15061",447,40.680562,-80.301461
24569,"1576 CHESTER PIKE, EDDYSTONE, PA, 19022",431,39.865832,-75.341757
24939,"100 DAVIS BLVD, PITTSBURGH, PA, 15275-1219",417,40.449186,-80.173152
25183,"160 BROOKLYN ST, CARBONDALE, PA, 18407-2208",451,41.566016,-75.51423
25257,"HENDERSON ROAD, KING OF PRUSSIA, PA, 19406",449,40.095668,-75.365097
25261,"5372 ALLENTOWN PIKE, TEMPLE, PA, 19560",450,40.416003,-75.921919
25283,"306 RT 315, PITTSTON, PA, 18640",448,41.307042,-75.764104
25999,"1207 S MAIN ST, SOUTH GREENSBURG, PA, 15601",436,40.284765,-79.548085
26447,"4618 WILLIAM FLYNN HWY (DS 797), HAMPTON TOWNSHIP, PA, 15101",453,40.590007,-79.947934
26462,"7800 GERMANTOWN AVE, PHILADELPHIA, PA, 19118",0,40.068736,-75.199149
26463,"518 CONCHESTER HWY, BOOTHWYN, PA, 19061",0,39.849649,-75.449744
26477,"5601 VINE ST, PHILADELPHIA, PA, 19139",566,39.965999,-75.232234
26683,"RIVER ST & RT309, PLAINS, PA, 18705",454,41.261269,-75.867621
26828,"111 LANCASTER PIKE, ARDMORE, PA, 19003",427,40.009359,-75.293123
26833,"1123 WEST BALTIMORE PIKE, LIMA, PA, 19063",438,39.914305,-75.433866
26834,"5008 TOWNSHIP LINE RD, DREXEL HILL, PA, 19026",425,39.955992,-75.321084
26927,"2643 W 26TH ST, ERIE, PA, 16506",447,42.090256,-80.133177
27056,"1188 W BEN FRANKLIN HWY, DOUGLASSVILLE, PA, 19518",470,40.259218,-75.728384
27057,"6479 VILLAGE LN, MACUNGIE, PA, 18062",443,40.520238,-75.56977
27162,"222 E BALTIMORE PIKE, MEDIA, PA, 19063",0,39.915828,-75.385543
27262,"80 WILDERNESS DRIVE, HAMBURG, PA, 19526",446,40.562553,-76.005556
27302,"3 FAYETTE ST(STO SATELLITE), BELLE VERNON, PA, 15012",454,40.134136,-79.861664
27346,"2929 PAXTON ST, HARRISBURG, PA, 17111-1326",442,40.255521,-76.838712
27387,"1412-B MAIN STREET, BURGETTSTOWN, PA, 15021",460,40.380948,-80.393553
27436,"8500 ESSINGTON AVE., TERMINAL A WEST, PHILADELPHIA, PA, 19153",0,39.880583,-75.237516
27444,"1010 4TH AVE, CORAOPOLIS, PA, 15108",457,40.517893,-80.163059
27494,"689 W GERMANTOWN PIKE, EAST NORRISTOWN, PA, 19403-4233",433,40.152293,-75.347046
27664,"744 KIDDER ST, WILKES BARRE, PA, 18702",456,41.250828,-75.844593
27915,"5945 WOODLAND AVE, PHILADELPHIA, PA, 19143",503,39.930819,-75.227616
27990,"100 ROBINSON CENTER DR-SATELLITE, ROBINSON TOWNSHIP, PA, 15205",0,40.453273,-80.157465
28199,"7028 USHY 322, CRANBERRY, PA, 16319",433,41.350345,-79.715211
28275,"NW CORNER I-81 & S HANOVER (W*M #2574), CARLISLE, PA, 17013",0,40.189634,-77.194795
28337,"RT 796 & RT 1, JENNERSVILLE, PA, 19390",450,39.823738,-75.872565
28453,"I 81 & SR 848, NEW MILFORD, PA, 18834",455,41.822565,-75.682412
28550,"7277 SALTSBURG RD, PENN HILLS, PA, 15235",478,40.477237,-79.788099
28635,"3085 PITTSBURGH RD(SATELLITE), STAR JUNCTION, PA, 15482",432,40.062959,-79.765121
28718,"3612 STATE ROUTE 31, DONEGAL, PA, 15628",487,40.107039,-79.378204
29780,"102 CLEARVIEW CIR, BUTLER, PA, 16001",443,40.89466,-79.906532
29833,"400 BUTLER COMMONS (W*M #1885), BUTLER, PA, 16001",0,40.877972,-79.94317
29839,"150 TOWN CENTRE DRIVE(WM#1935), JOHNSTOWN, PA, 15904",0,40.276905,-78.845433
29995,"2028 NORTH CENTER AVE (WM #1765), SOMERSET, PA, 15501",0,40.052182,-79.071366
30024,"145 N. HERMITAGE RD, HERMITAGE, PA, 16148",479,41.2311,-80.448865
30047,"2251 CENTURY DR (W*M #2281), WEST MIFFLIN, PA, 15122",0,40.342144,-79.94604
30100,"6520 CARLISLE PIKE (W*M #1886), MECHANICSBURG, PA, 17050",0,40.246017,-77.024885
30107,"6535 GRAYSON RD (W*M #1591), HARRISBURG, PA, 17111",0,40.261172,-76.772439
30111,"516 SCHOOLHOUSE RD (W*M #3541), KENNETT SQUARE, PA, 19348",0,39.860625,-75.690043
30401,"355 WALMART DR, UNIONTOWN, PA, 15401-8424",0,39.905256,-79.755856
30656,"100 LUNGER DRIVE (W*M #1794), BLOOMSBURG, PA, 17815",421,41.015066,-76.476564
30868,"2200 GREENGATE CENTRE(W*M#2059), GREENSBURG, PA, 15601",0,40.308537,-79.581169
30925,"30 TRINITY POINT DRIVE(W*M#1739), WASHINGTON, PA, 15301",0,40.182814,-80.221955
31078,"208 AIRPORT DRIVE, MIDDLETOWN, PA, 17057",0,40.196685,-76.760034
31107,"122 AJK BLVD, LEWISBURG, PA, 17837",0,40.9828,-76.883573
31333,"7700 ISLAND AVE, PHILADELPHIA, PA, 19153",521,39.903164,-75.239145
31410,"MOTEL DRIVE & RT 4011, SHARTLESVILLE, PA, 19526",457,40.517508,-76.111
31563,"2010 VALUE DRIVE(W*M #3838), TARENTUM, PA, 15084",0,40.564306,-79.804076
31730,"YORK CROSSING DR, SHILOH, PA, 17404",447,39.966056,-76.77593
31868,"52ND & JEFFERSON, PHILADELPHIA, PA, 19131",540,39.979957,-75.224318
32032,"680 BUTLER CROSSING, BUTLER, PA, 16001",446,40.877158,-79.948215
32211,"2065 INTERCHANGE RD, ERIE, PA, 16509-0015",449,42.064011,-80.100905
32415,"RT 72 & I-81, JONESTOWN, PA, 17038",457,40.449619,-76.515324
32460,"135 LIMESTONE ROAD, OXFORD, PA, 19363",447,39.796094,-75.976494
32727,"2012 NEW CASTLE ROAD, PORTERSVILLE, PA, 16051",448,40.964523,-80.140125
32993,"20245 ROUTE 19-WM#1770, CRANBERRY TOWNSHIP, PA, 16066",0,40.687619,-80.105062
33329,"1200 WELSH RD, NORTH WALES, PA, 19454",457,40.227288,-75.259117
33350,"GALLERY AT 9TH/MARKET, PHILADELPHIA, PA, 19107",0,39.951807,-75.15592
33545,"273 EAST ROY FURMAN PARKWAY, WAYNESBURG, PA, 15370",425,39.899689,-80.147576
33806,"907 FREEPORT ROAD, PITTSBURGH, PA, 15238",435,40.486908,-79.889683
33951,"HERITAGE SHOPPING CENTER, 32 RIDGE PIKE, LIMERICK, PA, 19468",433,40.217226,-75.501968
34236,"8800 ESSINGTON AVE., TERMINAL E, PHILADELPHIA, PA, 19153",0,39.879349,-75.241332
34960,"6004 DERRY ST, HARRISBURG, PA, 17111",447,40.26399,-76.783967
