nsn,address,items_with_price,lat,lon
249,"510 N ORCHARD, BOISE, ID, 83704",393,43.609385,-116.242896
1774,"831 YELLOWSTONE HWY, POCATELLO, ID, 83201-4414",390,42.889931,-112.451916
1945,"711 21ST STREET, LEWISTON, ID, 83501-3322",432,46.41317,-117.00143
2302,"305 BLUE LAKES BLVD N, TWIN FALLS, ID, 83301-4828",427,42.567099,-114.46078
2743,"148 CALDWELL BLVD, NAMPA, ID, 83651-2333",401,43.586641,-116.574762
3307,"616 E Green St, , ",482,47.700518,-116.788235
3568,"7811 FAIRVIEW AVE, BOISE, ID, 83704",400,43.619055,-116.279698
3969,"1404 MOSCOW-PULLMAN HIGHWAY, MOSCOW, ID, 83843",431,46.732956,-117.021355
4289,"1185 VISTA AVE, BOISE, ID, 83705-2430",395,43.593863,-116.214174
4951,"1011 S 5TH, POCATELLO, ID, 83201-6636",393,42.859303,-112.435513
4952,"7222 OVERLAND RD, BOISE, ID, 83709",396,43.590711,-116.272046
4979,"394 N OVERLAND AVE, BURLEY, ID, 83318-3433",425,42.559891,-113.7938
5138,"175 VALLEY RIVER DR, REXBURG, ID, 83440",407,43.833695,-111.778588
5582,"2923 CLEVELAND BLVD, CALDWELL, ID, 83605-4425",396,43.648592,-116.665716
7235,"1275 PARKWAY DR, BLACKFOOT, ID, 83221-1833",403,43.195973,-112.360095
7261,"205 BONNER MALL WAY, PONDERAY, ID, 83852-9748",451,48.300865,-116.545522
7873,"4825 GLENWOOD, BOISE, ID, 83714-1323",395,43.648824,-116.280325
8160,"2828 AIRPORT WAY (SATELLITE), BOISE CITY, ID, 83705",0,43.570182,-116.217508
10172,"1375 BROADWAY, BOISE, ID, 83706-3703",402,43.59621,-116.194206
11069,"W 3820 - 5TH, POST FALLS, ID, 83854",521,47.711409,-116.999341
11233,"755 AIR BASE RD, MOUNTAIN HOME, ID, 83647",425,43.126132,-115.700656
11492,"4260 YELLOWSTONE, CHUBBUCK, ID, 83202-2400",393,42.910992,-112.465672
11887,"195 E CENTRAL DR, MERIDIAN, ID, 83642",402,43.597103,-116.392626
12174,"650 E 17TH ST, IDAHO FALLS, ID, 83401",407,43.482214,-112.020592
12706,"2516 S APPLE ST, BOISE, ID, 83706-5170",0,43.580191,-116.173013
12846,"820 W. CAMERON, KELLOGG, ID, 83837",452,47.547418,-116.133468
13094,"340 W. HANLEY STREET, COEUR D'ALENE, ID, 83814",477,47.729581,-116.791867
13380,"720 N MAIN ST, HAILEY, ID, 83333",423,43.526588,-114.319897
13496,"869 POLE LINE RD, TWIN FALLS, ID, 83301",425,42.592355,-114.461173
13630,"8571 W FRANKLIN RD, BOISE, ID, 83709",395,43.604682,-116.288671
13903,"1108 12TH AVE S, NAMPA, ID, 83651-4686",396,43.55806,-116.572272
14816,"2611 S LINCOLN ST, JEROME, ID, 83338",425,42.694754,-114.519277
14904,"2840 AMERICAN LEGION BLVD, MOUNTAIN HOME, ID, 83647",425,43.136983,-115.664387
15034,"1335 S WASHINGTON, EMMETT, ID, 83617",396,43.863313,-116.500629
15101,"862 TROY ROAD, MOSCOW, ID, 83843",431,46.722348,-116.989017
15715,"119 THAIN ROAD, LEWISTON, ID, 83501",431,46.390393,-116.989271
16113,"1710 E FAIRVIEW AVE, MERIDIAN, ID, 83642",401,43.619827,-116.372984
16953,"1615 E SELTICE WAY, POST FALLS, ID, 83854",508,47.711133,-116.922227
17087,"1875 SOUTH 25TH EAST, AMMON, ID, 83406",406,43.480398,-111.983976
18610,"406 E MAIN ST, WEISER, ID, 83672",453,44.246083,-116.963431
19731,"178 S EAGLE RD, EAGLE, ID, 83616",400,43.693359,-116.353603
20233,"8300 W OVERLAND RD (WALMART #2508), BOISE, ID, 83709",0,43.592307,-116.284741
22417,"1575 N GATE MILE, IDAHO FALLS, ID, 83401",406,43.510632,-112.017997
22567,"2510 FAIRVIEW AVE, BOISE, ID, 83702",395,43.621202,-116.221531
23720,"3100 E MAGIC VIEW DR, MERIDIAN, ID, 83642",400,43.60013,-116.355707
23746,"6574 S FEDERAL WAY, BOISE, ID, 83716",396,43.542299,-116.154909
23754,"9804 FAIRVIEW AVE, BOISE, ID, 83704",400,43.620263,-116.304779
24070,"7120 WEST MAIN ST, RATHDRUM, ID, 83858",452,47.816936,-116.882318
24345,"1485 W BROADWAY, IDAHO FALLS, ID, 83402",407,43.496163,-112.057874
26301,"GARRITY BOULEVARD, NAMPA, ID, 83687",395,43.595682,-116.517085
27318,"350 N MILWAUKEE, BOISE, ID, 83788",0,43.608049,-116.27854
27600,"110 ADDISON AVE WEST, TWIN FALLS, ID, 83301",425,42.563894,-114.480603
28993,"1201 SOUTH 25TH EAST (W*M 1902), AMMON, ID, 83406",0,43.486665,-111.981399
29469,"2100 12TH AVENUE RD (WALMART #2781), NAMPA, ID, 83686",0,43.548869,-116.570476
29507,"5108 E CLEVELAND BLVD (W*M #2780), CALDWELL, ID, 83605",0,43.631279,-116.645528
30817,"3201 AIRPORT WAY, BOISE, ID, 83705",0,43.57104,-116.22033
31936,"3415 W. CHERRY LANE, MERIDIAN, ID, 83642",400,43.618959,-116.435863
32394,"3251 E. USTICK RD., MERIDIAN, ID, 83646",401,43.633525,-116.353861
32649,"16801 N. MARKETPLACE BLVD., NAMPA, ID, 83687",400,43.614019,-116.593738
33785,"1460 WEST CHINDEN BOULEVARD, EAGLE, ID, 83616",401,43.66338,-116.411111
34316,"2440 MAIN STREET, GOODING, ID, 83330",426,42.92361,-114.712655
34553,"706 US HWY 30, BUHL, ID, 83316",423,42.593916,-114.749805
36053,"6737 SOUTH 45TH WEST, IDAHO FALLS, ID, 83402",405,43.437537,-112.118984
