nsn,address,items_with_price,lat,lon
220,"5900 MENAUL BLVD NE, ALBUQUERQUE, NM, 87110-3240",443,35.108677,-106.577919
235,"925 SAN PEDRO DR NE, ALBUQUERQUE, NM, 87108-1849",399,35.086944,-106.577731
364,"5324 4TH ST NW, ALBUQUERQUE, NM, 87107-5206",467,35.136962,-106.641039
1424,"9515 CANDELARIA NE, ALBUQUERQUE, NM, 87112-1304",455,35.116521,-106.534387
2023,"201 W 14TH ST, CLOVIS, NM, 88101",409,34.411652,-103.20711
2279,"3299 CERRILLOS RD, SANTA FE, NM, 87501-2924",396,35.650204,-106.001049
2427,"720 N MAIN, ROSWELL, NM, 88201-4816",467,33.400426,-104.52329
2570,"11824 LOMAS BLVD NE, ALBUQUERQUE, NM, 87112-5614",445,35.086385,-106.51607
3140,"2614 W HWY 66, GALLUP, NM, 87301-6810",414,35.517183,-108.776054
3397,"2215 E MAIN ST, FARMINGTON, NM, 87401-7717",400,36.738609,-108.177837
3498,"222 S WHITE SANDS RD, ALAMOGORDO, NM, 88310-6563",447,32.888129,-105.960641
3514,"1501 COORS BLVD NW, ALBUQUERQUE, NM, 87121",470,35.100914,-106.707259
3865,"1709 N TURNER, HOBBS, NM, 88240-3801",423,32.717661,-103.141165
3907,"2305 CENTRAL AVE NW, ALBUQUERQUE, NM, 87104",405,35.095732,-106.674221
4071,"327 S. CANAL, CARLSBAD, NM, 88220",454,32.417223,-104.22942
4092,"6300 SAN MATEO NE, ALBUQUERQUE, NM, 87107",483,35.148469,-106.585827
4179,"5001 GIBSON SE, ALBUQUERQUE, NM, 87108-4623",399,35.058789,-106.586204
4238,"1247 TRINITY DR, LOS ALAMOS, NM, 87544-3216",0,35.879486,-106.297116
4404,"1600 ALAMEDA BLVD NW, ALBUQUERQUE, NM, 87106",463,35.202335,-106.647158
4456,"721 W PINE, DEMING, NM, 88030",450,32.268354,-107.7672
4644,"1700 W SANTA FE, GRANTS, NM, 87020-3544",437,35.157599,-107.870599
4654,"2200 CENTRAL AVE SE, ALBUQUERQUE, NM, 87106",467,35.080678,-106.621846
4738,"2300 E 66TH ST, GALLUP, NM, 87301",418,35.528996,-108.70902
4787,"1020 W 1ST AVE, PORTALES, NM, 88130-6609",408,34.181823,-103.34483
4919,"618 N RIVERSIDE, ESPANOLA, NM, 87532-2513",0,35.998441,-106.06414
5249,"3445 ISLETA SW, ALBUQUERQUE, NM, 87159",469,35.026149,-106.681171
5553,"13301 E CENTRAL NE, ALBUQUERQUE, NM, 87123-3035",450,35.068913,-106.498919
5590,"8315 MONTGOMERY NE, ALBUQUERQUE, NM, 87109-1603",452,35.131099,-106.552424
5659,"200 S SANTA FE RD, TAOS, NM, 87571",475,36.404656,-105.573863
5731,"2608 S 1ST ST, TUCUMCARI, NM, 88401-4203",408,35.154393,-103.724345
5808,"1102 N CALIFORNIA ST, SOCORRO, NM, 87801-4266",440,34.072169,-106.892884
6011,"542 CLAYTON RD, RATON, NM, 87740",400,36.885646,-104.433442
6029,"8601 CENTRAL NE, ALBUQUERQUE, NM, 87197",400,35.074514,-106.551176
6228,"140 SUDDERTH AVE, RUIDOSO, NM, 88345-6025",475,33.323828,-105.629427
6231,"1501 7TH ST, LAS VEGAS, NM, 87701-4900",403,35.605589,-105.223656
6849,"2330 E LOHMAN AVE, LAS CRUCES, NM, 88005",410,32.312845,-106.750577
7164,"503 N MAIN, BELEN, NM, 87002-3719",464,34.665565,-106.77566
7712,"1390 RIO RANCHO BLVD, RIO RANCHO, NM, 87124-1006",400,35.238987,-106.655753
8084,"1804 S MAIN, ROSWELL, NM, 88201",467,33.370233,-104.523719
10147,"2495 N MAIN, LAS CRUCES, NM, 88005",413,32.332585,-106.782682
10367,"1150 HICKORY, LAS CRUCES, NM, 88001",416,32.292151,-106.788991
10393,"652 MAIN ST NE, LOS LUNAS, NM, 87031-9223",464,34.805944,-106.728354
10833,"1105 S MAIN, LORDSBURG, NM, 88045",447,32.34359,-108.712901
10858,"12601 MONTGOMERY NE, ALBUQUERQUE, NM, 87111-4233",453,35.131171,-106.497428
11060,"KIRTLAND AIR FORCE BASE, ALBUQUERQUE, NM, 87117",0,35.057682,-106.558886
11066,"2109 N DATE ST, TRUTH OR CONSEQUENCES, NM, 87901",442,33.15533,-107.248535
11098,"1016 CENTRAL AVE, MORIARTY, NM, 87035",0,35.010744,-106.064812
11473,"248 E HWY 44, BERNALILLO, NM, 87004",400,35.318164,-106.541255
11550,"1504 WILL ROGERS DR, SANTA ROSA, NM, 88435",460,34.944317,-104.669558
11796,"1621 PACHECO ST, SANTA FE, NM, 87501-3964",397,35.660022,-105.958806
11807,"223 W. 4TH STREET, HOLLOMAN AFB, NM, 88330",0,32.839906,-106.080804
11885,"201 SOUTH MAIN STREET, ARTESIA, NM, 88210",452,32.84041,-104.397921
12190,"4750 E MAIN, FARMINGTON, NM, 87401",401,36.766624,-108.150263
12391,"2904 E MABRY DR, CLOVIS, NM, 88101-8373",403,34.396084,-103.167954
12495,"8001 HARPER DR NE, ALBUQUERQUE, NM, 87109",404,35.159229,-106.55949
12501,"700 N HWY 666, GALLUP, NM, 87305",413,35.532664,-108.759118
13262,"410 S MAIN, LOVINGTON, NM, 88260",422,32.94451,-103.349298
13697,"5301 QUAIL NW, ALBUQUERQUE, NM, 87120",473,35.115652,-106.702277
14673,"23RD & SOUTHERN, RIO RANCHO, NM, 87124",398,35.241976,-106.691466
15793,"301 SAN MATEO S E (WALMART #0831), ALBUQUERQUE, NM, 87108",0,35.075782,-106.587895
16369,"4001 CALLE LUCIA, SANTA FE, NM, 87507",0,35.636409,-106.036703
18534,"8501 GOLF COURSE RD, ALBUQUERQUE, NM, 87114",466,35.180188,-106.688142
20105,"4300 OSUNA NE, ALBUQUERQUE, NM, 87109",478,35.155353,-106.59299
20533,"1751 E UNIVERSITY AVE, LAS CRUCES, NM, 88005",416,32.286827,-106.744735
21191,"2311 W PIERCE, CARLSBAD, NM, 88220",452,32.438569,-104.255339
22258,"104 W AZTEC BLVD, AZTEC, NM, 87410",399,36.825359,-107.995546
22591,"845 N BOSQUE FARM BLVD, BOSQUE FARM, NM, 87068",464,34.861695,-106.691422
22592,"COORS AND ARENAL, ALBUQUERQUE, NM, 87121",473,35.050568,-106.708262
22852,"300 LOMAS BLVD NE, ALBUQUERQUE, NM, 87102",403,35.089728,-106.642686
23481,"1105 HWY 180 E, SILVER CITY, NM, 88061",447,32.784403,-108.264306
23529,"1523 4TH ST. SOUTH, ALBUQUERQUE, NM, 87102",464,35.070694,-106.65464
23895,"2801 CARLISLE BLVD NE, ALBUQUERQUE, NM, 87107",441,35.113314,-106.604614
24370,"1420 MONTANO RD NE, ALBUQUERQUE, NM, 87107",404,35.134309,-106.612941
25211,"#2A SR 344, EDGEWOOD, NM, 87015",444,35.062045,-106.190933
26250,"US HWY 491, SHIPROCK, NM, 87420",409,36.77638,-108.696102
27183,"4810 MESA GRANDE DRIVE, LAS CRUCES, NM, 88012",418,32.385267,-106.716841
27525,"3726 N LOVINGTON HWY, HOBBS, NM, 88240",414,32.741341,-103.161121
28191,"6401 HWY. 550, CUBA, NM, 87013",396,36.018814,-106.961171
28808,"4500 A NO. MAIN (W*M #611), ROSWELL, NM, 88201",0,33.44989,-104.526258
28828,"2250 MAIN STREET NW (WM 3596), LOS LUNAS, NM, 87031",0,34.816991,-106.763489
30148,"2701CARLISLE BLVD NE (W*M #850), ALBUQUERQUE, NM, 87107",0,35.111279,-106.604196
30374,"1550 SOUTH VALLEY (W*M #5155), LAS CRUCES, NM, 88005",0,32.288762,-106.785235
30519,"4600 E MAIN ST (W*M #826), FARMINGTON, NM, 87402",0,36.767528,-108.151669
30578,"233 S NEW YORK AVE (WAL*MART 1306), ALAMOGORDO, NM, 88310-6531",0,32.886903,-105.957685
30903,"8500 COORS BLVD., SW, ALBUQUERQUE, NM, 87105",0,35.026066,-106.7114
30968,"2266 WYOMING BLVD. NE, ALBUQUERQUE, NM, 87112",0,35.106194,-106.5488
31141,"1650 W MALONEY AVE (W*M 906), GALLUP, NM, 87301",326,35.530259,-108.758892
31188,"I-40 EXIT 102, ACOMA, NM, 87034",435,35.07642,-107.556322
31305,"400 EUBANK BLVD. NE, ALBUQUERQUE, NM, 87123",0,35.079279,-106.529927
31397,"901 UNSER BLD  SE ( (W*M 3732), RIO RANCHO, NM, 87124",0,35.243074,-106.699159
31404,"6221 RIVERSIDE PLACE, ALBUQUERQUE, NM, 87120",471,35.154619,-106.681588
31442,"1007 SO ST FRANCIS DRIVE, SANTA FE, NM, 87505",396,35.67659,-105.953293
31566,"1620 EL PASEO ROAD, LAS CRUCES, NM, 88001",419,32.293806,-106.76818
31869,"6200 HOLLY AVENUE, ALBUQUERQUE, NM, 87113",481,35.175413,-106.577111
31902,"66 STATE ROAD 344 (W*M 4201), EDGEWOOD, NM, 87015",0,35.070823,-106.189414
31973,"3626 NEW MEXICO 528 NE, RIO RANCHO, NM, 87004",398,35.321857,-106.573676
32613,"150 NORTH 98TH STREET, ALBUQUERQUE, NM, 87121",462,35.075931,-106.74284
33423,"5020 PROMENADE BLVD., SANTA FE, NM, 87507",398,35.619703,-106.028633
33972,"3801 N. PRINCE ST, CLOVIS, NM, 88101",402,34.436363,-103.195792
35806,"U.S. HIGHWAY 70 (WM #4601), LAS CRUCES, NM, 88007",0,32.311418,-106.820458
