nsn,address,items_with_price,lat,lon
203,"12109 NE GLISAN STREET, PORTLAND, OR, 97220",521,45.526722,-122.538215
330,"9475 BEAVERTON HILLSDALE, BEAVERTON, OR, 97005",427,45.486866,-122.774213
384,"2875 SE POWELL BLVD, PORTLAND, OR, 97202-2051",542,45.497723,-122.635882
425,"9100 SE POWELL BLVD, PORTLAND, OR, 97266",536,45.4971,-122.568885
503,"3330 NE 82ND AVE, PORTLAND, OR, 97220-5230",554,45.546939,-122.578378
594,"1110 CENTER ST NE, SALEM, OR, 97301-2523",487,44.940332,-123.026978
1670,"55 RIVER AVE, EUGENE, OR, 97402",452,44.095994,-123.126537
1810,"2250 NW 9TH ST, CORVALLIS, OR, 97330-1555",560,44.590896,-123.254342
1818,"4020 COMMERCIAL ST SE, SALEM, OR, 97302-3839",511,44.898407,-123.037908
1914,"1874 AVALON BLVD, KLAMATH FALLS, OR, 97601",506,42.211726,-121.754287
2013,"245 BARNETT RD, MEDFORD, OR, 97504",0,42.316173,-122.861521
2014,"1565 MOHAWK BLVD, SPRINGFIELD, OR, 97477-3355",587,44.05926,-122.999386
2160,"3519 CEDAR HILLS BLVD, BEAVERTON, OR, 97005-2026",428,45.494017,-122.810679
2633,"2048 NE 3RD ST, BEND, OR, 97701-3815",531,44.070197,-121.301977
2977,"1567 NE BURNSIDE RD, GRESHAM, OR, 97030",491,45.504034,-122.415851
3110,"558 SE 10TH AVE, HILLSBORO, OR, 97123-4625",0,45.516434,-122.973413
3318,"1891 N 6TH ST, GRANTS PASS, OR, 97526-1057",476,42.461272,-123.322221
3471,"1580 COBURG RD, EUGENE, OR, 97401-4802",456,44.079693,-123.06927
3567,"511 NE GARDEN VALLEY RD, ROSEBURG, OR, 97470-2081",452,43.226461,-123.350006
3732,"12005 N CENTER ST, PORTLAND, OR, 97217-7816",515,45.610169,-122.680596
3851,"1011 LANCA STER DRIVE NE, SALEM, OR, 97301-2934",486,44.943627,-122.98371
3972,"1831 W BURNSIDE, PORTLAND, OR, 97209",497,45.523202,-122.68999
3974,"3303 BROADWAY, NORTH BEND, OR, 97459-2201",472,43.392261,-124.238837
4453,"3232 E PACIFIC, ALBANY, OR, 97321",467,44.642444,-123.064202
4482,"2910 NEWBURG HWY, WOODBURN, OR, 97071-2819",560,45.150706,-122.876839
4483,"1140 BIDDLE RD, MEDFORD, OR, 97504",487,42.340611,-122.871387
4626,"12090 SW MAIN, TIGARD, OR, 97223-6218",424,45.4323,-122.767904
4662,"1690 E IDAHO AVE, ONTARIO, OR, 97914-3028",453,44.024076,-116.940686
4675,"900 SOUTHGATE, PENDLETON, OR, 97801-3950",483,45.656635,-118.809732
4688,"1315 W 6TH, THE DALLES, OR, 97058-3517",467,45.607344,-121.201106
5171,"2308 ISLAND AVE, LA GRANDE, OR, 97850",486,45.3301,-118.075473
5218,"1320 N 1ST, HERMISTON, OR, 97838-1102",473,45.849787,-119.28952
5398,"3315 PACIFIC AVE, FOREST GROVE, OR, 97116-1914",515,45.52051,-123.088946
5563,"2250 S SANTIAM HWY, LEBANON, OR, 97355-2481",465,44.523933,-122.907498
5678,"1300 N COAST HWY, NEWPORT, OR, 97365-2445",467,44.646866,-124.052474
5679,"1691 N HWY 99 W., MCMINNVILLE, OR, 97128-2728",445,45.227023,-123.181755
5858,"1450 S MOLALLA, OREGON CITY, OR, 97045-4004",491,45.334827,-122.589672
5957,"19200 SW BOONES FERRY RD, TUALATIN, OR, 97062",514,45.380982,-122.763871
5994,"15960 SE 82ND DR, CLACKAMAS, OR, 97015-9502",554,45.408089,-122.568372
5995,"2481 CAMPUS DR, KLAMATH FALLS, OR, 97601-1102",507,42.249606,-121.789978
5996,"7421 CRATER LAKE HWY, WHITE CITY, OR, 97503",483,42.424584,-122.851711
6021,"12440 SE 82ND, PORTLAND, OR, 97206",496,45.433797,-122.578433
6209,"1910 6TH AVE W, EUGENE, OR, 97402-4308",453,44.05301,-123.121617
6284,"2435 NW TOWN CENTER DR, HILLSBORO, OR, 97006-8948",466,45.53723,-122.867108
6740,"16044 LOWER BOONES FERRY, LAKE OSWEGO, OR, 97034",476,45.409292,-122.720623
6759,"37445 SE HWY 26, SANDY, OR, 97055-9250",505,45.400972,-122.278637
6774,"1520 N.E. GRAND, PORTLAND, OR, 97232-1153",565,45.534126,-122.66043
6845,"19525 SW TUALATIN VALLEY HWY, ALOHA, OR, 97006-2340",484,45.495417,-122.878416
6933,"645 MARINE DR, ASTORIA, OR, 97103-4238",470,46.190137,-123.835955
6968,"1035 SW 6TH AVE, PORTLAND, OR, 97204-1102",0,45.516646,-122.680115
7361,"4880 NE RIVER RD, KEIZER, OR, 97303-4538",485,44.9944,-123.026079
7439,"3005 PORTLAND RD, NEWBERG, OR, 97132-2074",465,45.306363,-122.948801
7574,"4060 N HWY 101, LINCOLN CITY, OR, 97367",466,44.995131,-124.004716
7591,"1520 GATEWAY BLVD, COTTAGE GROVE, OR, 97424-1262",449,43.803506,-123.044917
7592,"2456 S HWY 97, REDMOND, OR, 97756-8874",448,44.253268,-121.182824
7789,"2010 NE CESAR E CHAVEZ BLVD, PORTLAND, OR, 97212-5333",551,45.5373,-122.622445
7966,"1049 MARINA WAY, HOOD RIVER, OR, 97031-2378",466,45.711291,-121.500129
7997,"900 SW HIGHLAND DR, GRESHAM, OR, 97080-6373",498,45.489834,-122.475029
8050,"18320 SE STARK ST, PORTLAND, OR, 97233",564,45.518742,-122.474722
10354,"3405 GATEWAY ST, SPRINGFIELD, OR, 97477-1057",450,44.082978,-123.041066
10656,"3208 NW YEON, PORTLAND, OR, 97210-1524",547,45.545702,-122.706105
10733,"2855 WILLAMETTE, EUGENE, OR, 97401",450,44.026848,-123.090267
10928,"16200 SW PACIFIC HWY, TIGARD, OR, 97223",470,45.403715,-122.79658
11026,"1002 NW FRONTAGE RD, TROUTDALE, OR, 97060-9534",513,45.543963,-122.397545
11041,"1151 SE 3RD, BEND, OR, 97702",525,44.038001,-121.30497
11042,"760 CAMPBELL ST, BAKER CITY, OR, 97814",483,44.782064,-117.815106
11080,"8011 NE MARTIN LUTHER KING JR BLVD, PORTLAND, OR, 97211",502,45.581751,-122.661914
11214,"204 NE BEACON DR, GRANTS PASS, OR, 97526-3842",477,42.436527,-123.308321
11234,"221 FERN VALLEY RD, MEDFORD, OR, 97501",479,42.28134,-122.817416
11240,"10970 SE OAK ST, MILWAUKIE, OR, 97222-6695",488,45.443344,-122.628548
11410,"772 S BROADWAY, COOS BAY, OR, 97420-1542",474,43.361385,-124.212791
11502,"12388 SW SCHOLLS FERRY RD, TIGARD, OR, 97223-3335",458,45.443259,-122.803825
11574,"5613 SE 82ND AVE, PORTLAND, OR, 97266-4813",491,45.48205,-122.579604
11621,"3990 DEVONSHIRE AVE, SALEM, OR, 97305",487,44.965581,-122.983984
11785,"227 E ELLENDALE AVE, DALLAS, OR, 97338-1511",464,44.929329,-123.309613
11794,"815 CHETCO AVE, BROOKINGS, OR, 97415-0250",514,42.053332,-124.28712
11874,"SWAN ISLAND 3110 N GOING ST, PORTLAND, OR, 97217",0,45.555647,-122.698697
11916,"28 NE OAK ST, MADRAS, OR, 97741",440,44.639907,-121.129101
11960,"1820 PACIFIC BLVD SW, ALBANY, OR, 97321-3532",475,44.623033,-123.110547
12065,"2010 CLACKAMETTE DR, OREGON CITY, OR, 97045",525,45.368954,-122.60174
12086,"225 S ROOSEVELT DR, SEASIDE, OR, 97138-6741",467,45.992238,-123.920397
12202,"1855 N MAIN ST, TILLAMOOK, OR, 97141",468,45.469147,-123.843698
12284,"5701 MAIN ST, SPRINGFIELD, OR, 97477",449,44.045384,-122.929165
12361,"709 S WEST FIRST ST, CANBY, OR, 97013-3823",559,45.258832,-122.699324
12490,"280 PRUNER RD, MYRTLE CREEK, OR, 97457",453,42.972925,-123.340583
12520,"2101 CASCADE AVENUE, HOOD RIVER, OR, 97031",466,45.709598,-121.534022
12532,"2060 HWY 101, FLORENCE, OR, 97439",452,43.984574,-124.10095
12712,"2630 NE HWY 20, BEND, OR, 97701",529,44.05523,-121.265968
12714,"225 NE NORTON LN, MCMINNVILLE, OR, 97128",444,45.201922,-123.167046
12776,"8149 SE STARK, PORTLAND, OR, 97215",576,45.519403,-122.579374
12952,"9975 NW GLENCOE RD, NORTH PLAINS, OR, 97133",501,45.592038,-122.996817
13256,"20120 PINEBROOK BLVD (W*M #2075), BEND, OR, 97702",0,44.023448,-121.317282
13319,"408 S MAIN ST, MILTON FREEWATER, OR, 97862-1058",470,45.931299,-118.38751
13471,"659 E BROADWAY (HILLYARD), EUGENE, OR, 97403",454,44.050179,-123.083049
13567,"2535 NW STEWART PARKWAY, ROSEBURG, OR, 97470",457,43.237878,-123.369593
13589,"10050 SW BARBUR BLVD, PORTLAND, OR, 97219",424,45.452608,-122.722419
13756,"498 W 3RD ST, PRINEVILLE, OR, 97754",445,44.302554,-120.851692
13769,"110 SE BASELINE ST, HILLSBORO, OR, 97123",481,45.519933,-122.989376
13805,"1379 W CENTRAL, SUTHERLIN, OR, 97479",453,43.386798,-123.335088
13829,"1598 HAWTHORNE AVE, SALEM, OR, 97302",509,44.949282,-122.992171
13896,"12026 NE AIRPORT WAY, PORTLAND, OR, 97230",499,45.566887,-122.537191
13945,"47567 HWY 58, OAKRIDGE, OR, 97463",0,43.747164,-122.486353
13946,"2100 8TH CT, WEST LINN, OR, 97068",500,45.346273,-122.650944
14063,"2000 HWY 20, SWEET HOME, OR, 97386",472,44.399578,-122.720247
14064,"570 WALLACE RD NW, SALEM, OR, 97304",507,44.946218,-123.049235
14065,"641 N HWY 20, HINES, OR, 97738",476,43.573647,-119.074162
14118,"3995 RICKEY ST SE, SALEM, OR, 97301",511,44.915416,-122.980825
14142,"300 NW 3RD ST, CORVALLIS, OR, 97330",551,44.566697,-123.260052
14197,"58771 S COLUMBIA RIVER HWY, SAINT HELENS, OR, 97051",556,45.848453,-122.832727
14232,"355 W 10TH, JUNCTION CITY, OR, 97448",566,44.222332,-123.203973
14537,"3611 CRATER LAKE HWY, MEDFORD, OR, 97504",488,42.366328,-122.856608
15375,"33558 HAVLIK DR, SCAPPOOSE, OR, 97056",546,45.740688,-122.877191
15482,"1049 N 1ST ST, SILVERTON, OR, 97381",569,45.014142,-122.786261
15739,"742 W MAIN ST, JOHN DAY, OR, 97845",0,44.419039,-118.965536
16093,"2313 LLOYD CTR (SATELLITE), PORTLAND, OR, 97232",0,45.532504,-122.654124
16288,"3555 W 11TH ST, EUGENE, OR, 97402",452,44.048383,-123.1446
16430,"3025 LANCA STER DR NE  (WALMART), SALEM, OR, 97305",0,44.964663,-122.986593
16432,"1988 SHAFF RD, STAYTON, OR, 97383",465,44.809491,-122.814058
16834,"29682 SW TOWN CENTER LOOP W, WILSONVILLE, OR, 97070",515,45.305448,-122.766677
16836,"8151 SE LAMPHIER, MILWAUKIE, OR, 97222",497,45.453398,-122.579479
16842,"4706 PORTLAND RD NE, SALEM, OR, 97305",487,44.990122,-122.986901
16865,"125 S 14TH ST, PHILOMATH, OR, 97370",559,44.539308,-123.365822
16884,"341 LONE PINE DR, THE DALLES, OR, 97058",473,45.604322,-121.138615
17073,"14600 SUNNYSIDE RD, CLACKAMAS, OR, 97015",0,45.424639,-122.513066
17140,"2830 BROADWAY ST NE, SALEM, OR, 97309",483,44.969028,-123.028145
17473,"15975 SW REGATTA LN, BEAVERTON, OR, 97006",459,45.516469,-122.840079
17575,"43 S 9TH ST, CENTRAL POINT, OR, 97502",476,42.377781,-122.909648
17746,"18550 WILLAMETTE DR, WEST LINN, OR, 97068",0,45.389909,-122.643714
18011,"11201 SW 72ND, TIGARD, OR, 97223",429,45.439286,-122.751746
18056,"1315 MONMOUTH ST, INDEPENDENCE, OR, 97351",465,44.850954,-123.205702
18207,"1565 W MAIN ST, MOLALLA, OR, 97038",562,45.151528,-122.605474
18234,"1850 SW 6TH AVE, PORTLAND, OR, 97201",0,45.510909,-122.682795
18252,"310 N 14TH ST, REEDSPORT, OR, 97467",452,43.699863,-124.110501
18428,"4779 GRANGE RD, ROSEBURG, OR, 97470",0,43.144613,-123.381666
18588,"1525 N EAST 103RD ST, PORTLAND, OR, 97220",443,45.53381,-122.556983
18642,"1476 SW 4TH AVE, ONTARIO, OR, 97914",450,44.024536,-116.986489
18659,"13470 SE HWY 212, CLACKAMAS, OR, 97015",563,45.409824,-122.525789
18978,"5090 COMMERCIAL ST SE, SALEM, OR, 97302",488,44.880984,-123.029185
19013,"21355 SHERWOOD BLVD, SHERWOOD, OR, 97140",471,45.365601,-122.847698
19905,"820 E BERKELEY ST, GLADSTONE, OR, 97027",571,45.383033,-122.582054
20937,"6800 NYBERG RD, TUALATIN, OR, 97062",474,45.382445,-122.746527
20942,"2555 SW CHERRY PARK RD, TROUTDALE, OR, 97060",517,45.528603,-122.412535
21298,"13459 NWCORNELL RD, PORTLAND, OR, 97229",461,45.527733,-122.813817
23016,"2231 NE 181ST AVE, PORTLAND, OR, 97230-6924",464,45.538462,-122.477712
23307,"2125 CUBIT ST, EUGENE, OR, 97402",452,44.085059,-123.167454
23538,"7487 N IDA AVE, PORTLAND, OR, 97203",555,45.586878,-122.738913
24524,"15870 SE MCLOUGHLIN BLVD, MILWAUKIE, OR, 97267",490,45.407941,-122.624909
25344,"1610 ALLEN CREEK ROAD, GRANTS PASS, OR, 97527",478,42.420628,-123.353337
25960,"19850 SE HWY 212, CLACKAMAS, OR, 97015",0,45.417277,-122.457801
26244,"1215 NE 48TH, HILLSBORO, OR, 97124",466,45.53386,-122.934544
26924,"2115 HWY 395, STANFIELD, OR, 97875",466,45.765969,-119.205635
26936,"220 SW CENTURY DR, BEND, OR, 97702",528,44.0484,-121.331376
28762,"91485 BIGGS-RUFUS HWY, WASCO, OR, 97065",472,45.669451,-120.834737
28982,"3002 STACY ALLISON WAY (W*M 1793), WOODBURN, OR, 97071",0,45.148055,-122.880757
28991,"3600 WASHBURN WAY (W*M 1772), KLAMATH FALLS, OR, 97603",0,42.19334,-121.759935
28997,"2051 NEWMARK AVE (W*M 1880), COOS BAY, OR, 97420",0,43.390002,-124.251717
28998,"305 NE TERRY LANE (W*M 1834), GRANTS PASS, OR, 97526",0,42.434727,-123.301891
30524,"16505 REED ROAD, LA PINE, OR, 97739",530,43.674047,-121.49987
31120,"1001 RAILWAY AVENUE, SISTERS, OR, 97759",531,44.297825,-121.561872
31215,"4550 W. 11TH ST.(W*M), EUGENE, OR, 97402",0,44.046279,-123.16969
31216,"1360 CENTER DRIVE, MEDFORD, OR, 97501",0,42.309618,-122.854579
31379,"895 SW RIMROCK WAY #100, REDMOND, OR, 97756",445,44.268937,-121.19372
31843,"91027 S. COBURG INDUSTRIAL WAY, COBURG, OR, 97408",581,44.136756,-123.056242
31912,"300 NW OAK TREE LANE, REDMOND, OR, 97756",0,44.293027,-121.170599
33135,"72489 HIGHWAY 331, PENDLETON, OR, 97801",484,45.643702,-118.683013
34874,"6399 NW CORNELIUS PASS ROAD, HILLSBORO, OR, 97124",479,45.566311,-122.894745
34916,"6025 KEIZER STATION BLVD NE, KEIZER, OR, 97303",489,45.008228,-122.998368
35507,"1540 MOUNT HOOD AVE, WOODBURN, OR, 97071",552,45.151109,-122.836343
