nsn,address,items_with_price,lat,lon
63,"2075 SNELLING AVE N, ROSEVILLE, MN, 55113",433,45.003555,-93.167374
93,"6320 W LAKE ST, ST. LOUIS PARK, MN, 55416",432,44.942429,-93.359924
159,"1620 SERVICE DR, WINONA, MN, 55987-2177",393,44.051136,-91.68148
202,"4605 CENTRAL AVE NE, MINNEAPOLIS, MN, 55421-2435",410,45.052124,-93.246895
284,"8040 NICOLLET AVE, BLOOMINGTON, MN, 55420-1230",439,44.857845,-93.278999
291,"1273 S ROBERT ST, WEST ST. PAUL, MN, 55118",407,44.907799,-93.081352
371,"1388 MARYLAND AVENUE, ST. PAUL, MN, 55106",419,44.977264,-93.042625
507,"407 15TH AVE SE, MINNEAPOLIS, MN, 55414-2009",0,44.980247,-93.234558
531,"5400 W BROADWAY, CRYSTAL, MN, 55428-3506",442,45.051296,-93.360741
555,"2070 E COUNTY ROAD EAST, WHITE BEAR LAKE, MN, 55110",439,45.049999,-93.013802
671,"551 JEFFERSON ST, ST. PAUL, MN, 55102",430,44.930988,-93.122826
702,"720 N WINNETKA AVE, GOLDEN VALLEY, MN, 55427-4530",436,44.987469,-93.379654
919,"1411 MADISON AVE, MANKATO, MN, 56001-5441",461,44.166579,-93.971351
1057,"1116 N BROADWAY, ROCHESTER, MN, 55906",389,44.03476,-92.462545
1195,"210 2ND ST S, WAITE PARK, MN, 56387",416,45.5494,-94.219421
1246,"1009 W OAKLAND AVE, AUSTIN, MN, 55912-2217",397,43.666374,-92.986932
1366,"11364 FOLEY BLVD NW, COON RAPIDS, MN, 55448-3348",408,45.175781,-93.277122
1370,"2120 W DIVISION ST, ST. CLOUD, MN, 56301",454,45.552959,-94.183289
1406,"4121 HIAWATHA AVE, MINNEAPOLIS, MN, 55406-3357",452,44.928337,-93.223999
1761,"2929 HENNEPIN AVE S, MINNEAPOLIS, MN, 55408-1955",425,44.949131,-93.298035
1762,"110 E CENTRAL ENTRANCE, DULUTH, MN, 55811-5510",434,46.799939,-92.129755
1770,"1306 APACHE DR SW, ROCHESTER, MN, 55902",390,44.00497,-92.475044
1885,"220 8TH ST S, MOORHEAD, MN, 56560-2811",388,46.871996,-96.767604
1950,"3220 SOUTHDALE CIR, EDINA, MN, 55435-2511",452,44.882198,-93.319618
2123,"5760 CAHILL AVE, INVER GROVE HTS, MN, 55076",484,44.865124,-93.041855
2169,"609 E MAIN ST, ALBERT LEA, MN, 56007-2936",392,43.650281,-93.362167
2288,"14545 60TH ST N, STILLWATER, MN, 55082-6314",466,45.035175,-92.811516
2473,"210 E LAKE ST, MINNEAPOLIS, MN, 55408-2450",446,44.948551,-93.273651
2529,"3110 E LAKE ST, MINNEAPOLIS, MN, 55406-2002",406,44.948818,-93.226677
2567,"7667 150TH ST W, APPLE VALLEY, MN, 55124-7166",461,44.732895,-93.220963
2579,"525 N.W. 4TH STREET, FARIBAULT, MN, 55021-5032",459,44.294491,-93.277039
2665,"7355 POINT DOUGLAS RD, COTTAGE GROVE, MN, 55016",416,44.829548,-92.958733
2715,"5525 XERXES AVE N, BROOKLYN CENTER, MN, 55430-2856",449,45.055946,-93.322456
2770,"4000 W OLD SHAKOPEE RD, BLOOMINGTON, MN, 55437-2947",464,44.810814,-93.33094
2780,"840 E SAINT GERMAIN ST, ST. CLOUD, MN, 56304",448,45.569405,-94.140198
2805,"717 S 1ST ST, WILLMAR, MN, 56201-3503",406,45.116539,-95.042244
2874,"720 W MAIN ST, ANOKA, MN, 55303-1581",425,45.207561,-93.406586
2889,"1995 SILVER BELL RD, EAGAN, MN, 55122-1102",454,44.819523,-93.207298
2895,"521 W WASHINGTON ST, BRAINERD, MN, 56401-2927",411,46.356182,-94.218094
2981,"2201 HWY 10, MOUNDS VIEW, MN, 55112-4924",449,45.095806,-93.192871
2993,"3080 COON RAPIDS BLVD, COON RAPIDS, MN, 55433-3474",411,45.174244,-93.346214
3117,"1797 COPE AVE, MAPLEWOOD, MN, 55109-2608",471,45.010558,-93.024837
3118,"2260 RICE ST, LITTLE CANADA, MN, 55113",613,45.009682,-93.10527
3219,"4910 HWY 29 S, ALEXANDRIA, MN, 56308-2905",407,45.846783,-95.389473
3220,"8124 HWY 65, SPRING LAKE PARK, MN, 55432-2020",421,45.115513,-93.242256
3230,"1168 SILVER LAKE RD, NEW BRIGHTON, MN, 55112-6325",416,45.067024,-93.219109
3324,"9315 MEDICINE LAKE RD, GOLDEN VALLEY, MN, 55427-3112",442,45.007046,-93.39859
3491,"2105 LONDON RD, DULUTH, MN, 55812-2128",483,46.80517,-92.068879
3524,"1100 UNIVERSITY AVE NE, MINNEAPOLIS, MN, 55413-1222",456,44.999115,-93.263824
3525,"2213 UNIVERSITY AVENUE, ST. PAUL, MN, 55114",434,44.961967,-93.191406
3551,"1313 W COUNTY ROAD E, ARDEN HILLS, MN, 55112",431,45.050705,-93.155884
3617,"1841 SUBURBAN AVE, ST. PAUL, MN, 55119",408,44.950268,-93.022446
3746,"1245 PAUL BUNYAN DR NW, BEMIDJI, MN, 56601-4123",416,47.492622,-94.898003
4016,"1340 S FRONTAGE RD, HASTINGS, MN, 55033-2426",438,44.737717,-92.879013
4036,"1440 STINSON BLVD, MINNEAPOLIS, MN, 55413-1723",449,45.002743,-93.228333
4347,"1200 E COLLEGE DR, MARSHALL, MN, 56258-2010",432,44.450108,-95.773636
4385,"1271 E BRIDGE ST, REDWOOD FALLS, MN, 56283-1901",407,44.541954,-95.097389
4394,"1350 S 12TH AVE, VIRGINIA, MN, 55792-3232",422,47.511301,-92.551568
4459,"1937 WEST FRONTAGE ROAD, ROCHESTER, MN, 55901",0,44.044811,-92.489333
4618,"227 MARSCHALL RD, SHAKOPEE, MN, 55379-1674",455,44.799477,-93.508354
4708,"1705 S BROADWAY, NEW ULM, MN, 56073",420,44.296165,-94.443954
4709,"2217 N STATE ST, FAIRMONT, MN, 56031-3633",436,43.677005,-94.448684
4806,"1600 N STATE ST, WASECA, MN, 56093-2713",472,44.093201,-93.505951
4880,"HIGHWAY 59 SOUTH, THIEF RIVER FALLS, MN, 56701-0403",394,48.11417,-96.156119
4918,"2020 DODD RD, MENDOTA HEIGHTS, MN, 55120",394,44.882973,-93.124191
5004,"1450 E WAYZATA BLVD, WAYZATA, MN, 55391-1919",481,44.970791,-93.494926
5093,"1101 S HWY 3, NORTHFIELD, MN, 55057-3086",460,44.448776,-93.170044
5128,"2085 COLLEGE WAY, FERGUS FALLS, MN, 56537-1061",421,46.28906,-96.110192
5148,"12401 ULYSSES ST NE, BLAINE, MN, 55434-3940",433,45.195599,-93.235626
5151,"14200 GRAND AVE S, BURNSVILLE, MN, 55337-5704",470,44.745579,-93.280754
5170,"104 LEMIEUR ST, LITTLE FALLS, MN, 56345",414,45.974716,-94.338144
5196,"709 HWY 33 S, CLOQUET, MN, 55720-2659",482,46.711613,-92.461832
5287,"100 OAKWOOD DR, MONTICELLO, MN, 55362",418,45.297344,-93.799675
5391,"1244 W BROADWAY PO BOX 87, FOREST LAKE, MN, 55025-1417",411,45.278702,-93.001078
5420,"12321 CHAMPLIN DR, CHAMPLIN, MN, 55316-1906",443,45.177395,-93.393044
5451,"1021 E HIGHWAY 12, LITCHFIELD, MN, 55355-2616",414,45.121777,-94.505333
5535,"729 LONG LAKE RD, NEW BRIGHTON, MN, 55112-7770",431,45.037228,-93.19725
5538,"16831 HWY 13 SE, PRIOR LAKE, MN, 55372",447,44.70525,-93.434212
5541,"303 7TH ST NE, BUFFALO, MN, 55313-1744",418,45.178738,-93.870956
5629,"770 EXCELSIOR BLVD, EXCELSIOR, MN, 55331-1968",425,44.902279,-93.558319
5768,"2840 CHASKA BLVD, CHASKA, MN, 55318-2294",431,44.795586,-93.591438
5769,"15035 CANADA AVE, ROSEMOUNT, MN, 55068-1758",437,44.731148,-93.132095
5790,"1442 E 40TH ST, HIBBING, MN, 55746",422,47.400057,-92.924238
5914,"120 SAINT JULIEN ST, ST. PETER, MN, 56082",424,44.339352,-93.949295
5949,"1098 HWY 15 S, HUTCHINSON, MN, 55350-3154",419,44.875408,-94.376419
5976,"6255 SYCAMORE LANE NORTH, MAPLE GROVE, MN, 55369-6322",449,45.067196,-93.443802
6007,"4565 ERIN LANE, EAGAN, MN, 55121",456,44.791851,-93.218506
6118,"2322 WEST 7TH STREET, ST. PAUL, MN, 55116",415,44.903873,-93.164169
6127,"700 DODGE AVE, ELK RIVER, MN, 55330-1977",417,45.310158,-93.556747
6177,"150 W LIND CT, MANKATO, MN, 56001-0400",460,44.190093,-94.014772
6236,"9529 LYNDALE AVENUE SOUTH, BLOOMINGTON, MN, 55420-4213",477,44.83033,-93.287437
6300,"2770 N SERVICE DR, RED WING, MN, 55066-1985",393,44.566833,-92.575394
6359,"1759 WEIR DR, WOODBURY, MN, 55125-2242",435,44.924679,-92.971924
6483,"428 N CENTRAL, DULUTH, MN, 55807-2530",487,46.740438,-92.165976
6484,"9240 BLOOMINGTON FERRY RD, BLOOMINGTON, MN, 55438-1429",457,44.83585,-93.39695
6493,"2730 MINNEHAHA AVE, MAPLEWOOD, MN, 55119",418,44.96294,-92.985176
6523,"1 CENTRAL ST, CIRCLE PINES, MN, 55014-1761",452,45.140766,-93.163307
6591,"90 LAKE DR E, CHANHASSEN, MN, 55317-9319",471,44.860973,-93.523605
6907,"4950 HWY 61, WHITE BEAR LAKE, MN, 55110",525,45.091209,-93.006172
6942,"1535 RICE STREET, ST. PAUL, MN, 55117",414,44.987556,-93.106148
7056,"21300 ROGERS DR, ROGERS, MN, 55374-9540",415,45.19577,-93.549782
7063,"4435 LYNDALE AVE N, MINNEAPOLIS, MN, 55412-1436",484,45.03642,-93.288298
7122,"415 E FRAZEE, DETROIT LAKES, MN, 56501-3605",412,46.815208,-95.837667
7346,"1221 POKEGAMA AVE S, GRAND RAPIDS, MN, 55744-5044",423,47.21809,-93.52933
7494,"471 MARION STREET, ST. PAUL, MN, 55103",408,44.955513,-93.109846
7525,"2705 ANNAPOLIS CIR, PLYMOUTH, MN, 55441",451,45.00977,-93.452425
7563,"2400 NICOLLET AVE S, MINNEAPOLIS, MN, 55404-3449",421,44.958971,-93.278318
7566,"21044 KENRICK AVE, LAKEVILLE, MN, 55044-8585",429,44.644415,-93.292595
8016,"4637 SHADY OAK ROAD, MINNETONKA, MN, 55343-8838",468,44.919707,-93.426553
8193,"1210 TIMBERLANE DRIVE, SAUK CENTRE, MN, 56378",414,45.723084,-94.950467
8200,"172 MAIN ST, WINONA, MN, 55987",0,44.051985,-91.637889
10274,"9000 85TH AVE NORTH, BROOKLYN PARK, MN, 55445-2153",464,45.109266,-93.395678
10549,"3990 COUNTY RD #42, SAVAGE, MN, 55378",437,44.747085,-93.329971
10830,"1480 85TH AVE N, BROOKLYN PARK, MN, 55444-1416",436,45.109202,-93.300162
10892,"4311 CLEARWATER RD, ST. CLOUD, MN, 56301",421,45.494631,-94.148587
11108,"810 E 27TH ST, MINNEAPOLIS, MN, 55407-3701",0,44.953904,-93.261535
11312,"5835 ST. CROIX TRAIL, NORTH BRANCH, MN, 55056",472,45.510194,-92.989878
11329,"4201 WINNETKA AVE, NEW HOPE, MN, 55428-4924",479,45.033201,-93.380941
11397,"8100 UNIVERSITY AVE NE, FRIDLEY, MN, 55432-1864",418,45.115535,-93.264625
11564,"2808 BRIDGE AVE, ALBERT LEA, MN, 56007-2082",386,43.686463,-93.358436
11568,"598 PRAIRIE CENTER DRIVE, EDEN PRAIRIE, MN, 55344-7917",417,44.853351,-93.429987
11693,"1212 CENTRAL AVE NE, EAST GRAND FORKS, MN, 56721-1603",397,47.937083,-97.019222
11694,"2901 W HWY 13, BURNSVILLE, MN, 55337-1707",459,44.774736,-93.317054
11780,"1505 2ND ST SW, ROCHESTER, MN, 55902-0356",390,44.021908,-92.485556
12042,"3009 HWY 10 E, MOORHEAD, MN, 56560-2549",391,46.875778,-96.730621
12091,"555 NICOLLET MALL GAVIIDAE COMMONS, MINNEAPOLIS, MN, 55402-1066",0,44.978012,-93.270891
12260,"1450 8TH ST NW, PINE CITY, MN, 55063-1137",472,45.845614,-92.973948
12347,"905 E HWY 61, WINONA, MN, 55987",392,44.028217,-91.619909
12407,"13595 83RD WAY, MAPLE GROVE, MN, 55369-4644",478,45.105493,-93.452528
12567,"1351 TOWN CENTRE DR, GARRISON, MN, 56450",426,46.290683,-93.825999
12571,"1351 TOWN CENTRE DR, EAGAN, MN, 55123",461,44.829915,-93.165367
12574,"2935 SOUTHLAWN DR, MAPLEWOOD, MN, 55109",418,45.029664,-93.025833
12575,"6874 W FRONTAGE RD, MEDFORD, MN, 55049",479,44.172072,-93.260965
12632,"20158 ICENIC TRAIL, LAKEVILLE, MN, 55044",437,44.6571,-93.254088
12812,"1001 S KNISS, LUVERNE, MN, 56156",408,43.641296,-96.212329
12815,"5500 HWY #52 N, ROCHESTER, MN, 55901",388,44.080288,-92.504994
12817,"186 6TH ST, WINDOM, MN, 56101-1916",432,43.862787,-95.114545
12829,"100 GARFIELD ST S, CAMBRIDGE, MN, 55008",475,45.57228,-93.213444
12887,"330 JEFFERSON BLVD, BIG LAKE, MN, 55309",419,45.332153,-93.744745
13126,"1921 ADAMS ST, MANKATO, MN, 56001",475,44.17021,-93.947316
13128,"260 TRIANGLE LN, JORDAN, MN, 55352",458,44.670035,-93.637707
13299,"1570 W UNIVERSITY AVE, ST. PAUL, MN, 55104",0,44.955451,-93.165322
13485,"1124 ATLANTIC AVE PO BOX 469, MORRIS, MN, 56267",412,45.591782,-95.918913
13725,"5200 EXCELSIOR BLVD, ST. LOUIS PARK, MN, 55416",433,44.931822,-93.347077
13849,"609 8TH AVE SE, PIPESTONE, MN, 56164",412,43.994326,-96.306877
13885,"13731 ROUND LAKE BLVD, ANDOVER, MN, 55304",417,45.219998,-93.356841
13984,"1706 E HWY 7, MONTEVIDEO, MN, 56265",406,44.949501,-95.705732
14051,"56 E 6TH ST STE 213, ST. PAUL, MN, 55101",0,44.947922,-93.092621
14055,"701 NORTHLAND DR, PRINCETON, MN, 55371",466,45.557363,-93.583845
14733,"313 1ST AVE S, ST. JAMES, MN, 56081",438,43.98123,-94.631499
15039,"1130 7TH AVE, TWO HARBORS, MN, 55616",432,47.025036,-91.682035
15040,"101 S PARK AVE, PARK RAPIDS, MN, 56470",414,46.92177,-95.058981
15484,"9310 W SKYLINE PKY, PROCTOR, MN, 55810",467,46.725079,-92.218835
15545,"4601 LAKE DR, ROBBINSDALE, MN, 55422",428,45.031656,-93.338442
16042,"1202 BUCCANEER DR, BLUE EARTH, MN, 56013",439,43.652656,-94.093313
16383,"101 SOUTH HWY 53 & PINE ST, COOK, MN, 55723",0,47.848815,-92.687123
16826,"916 W BROADWAY, MINNEAPOLIS, MN, 55411",428,44.99978,-93.292348
17342,"20 ASH AVE NW, WADENA, MN, 56482",408,46.443105,-95.136742
17495,"505 NE WASHINGTON ST, BRAINERD, MN, 56401",454,46.360511,-94.181805
18003,"1811 UNIVERSITY AVE, CROOKSTON, MN, 56716",395,47.7895,-96.612343
18101,"1075 DIFFLEY RD, EAGAN, MN, 55123",0,44.805071,-93.145336
18102,"3075 80TH ST E, INVER GROVE HTS, MN, 55075",447,44.834521,-93.042676
18336,"710 IRON MINER MEMORIAL ROAD, CHISHOLM, MN, 55719",422,47.482197,-92.894396
18737,"1081 HWY 96, ST. PAUL, MN, 55127",416,45.080032,-93.054837
18751,"7997 SOUTHTOWN CTR, BLOOMINGTON, MN, 55431",468,44.859735,-93.308123
18824,"520 PAUL BUNYAN DR, BEMIDJI, MN, 56601",413,47.464501,-94.872898
19055,"410 FAXON RD N, NORWOOD YOUNG AMERICA, MN, 55368",465,44.770431,-93.919092
19389,"1700 17TH STREET, INTERNATIONAL FALLS, MN, 56649",423,48.587704,-93.403273
20382,"120 TWIN RIVERS CT, SARTELL, MN, 56377",446,45.595139,-94.192464
21139,"2410 W INDUSTRIAL BLVD, LONG LAKE, MN, 55356",416,44.988696,-93.584953
21835,"822 HWY 55, MEDINA, MN, 55340",416,45.047102,-93.54308
22234,"840 HAPPY TRAILS LN, ALBERT LEA, MN, 56007",391,43.656994,-93.317209
22646,"610 APOLLO DR, LINO LAKES, MN, 55014",512,45.182597,-93.11052
23042,"910 STRONG DR, WACONIA, MN, 55387",451,44.838666,-93.800745
23521,"4301 MENARD DR, HERMANTOWN, MN, 55811",479,46.822545,-92.184797
23684,"3231 NORTHDALE BLVD, COON RAPIDS, MN, 55433",414,45.199334,-93.346111
24090,"350 CENTRAL AVE E, ST. MICHAEL, MN, 55376",426,45.210898,-93.65689
24304,"9530 BLACK OAKS AVE, MAPLE GROVE, MN, 55311",453,45.127623,-93.48906
24690,"6645 LYNDALE AVENUE SOUTH, RICHFIELD, MN, 55423",419,44.881997,-93.286824
24799,"7685 WEST BROADWAY, BROOKLYN PARK, MN, 55428",437,45.092916,-93.377325
25106,"853 STHY 29 N, ALEXANDRIA, MN, 56308",410,45.90016,-95.365698
25255,"1490 BABCOCK BLVD, DELANO, MN, 55328",429,45.036358,-93.767379
25319,"4811 E VIKING BLVD, WYOMING, MN, 55092",411,45.336106,-93.00857
25397,"100 TENTH AVE. SE SUITE 2, NEW PRAGUE, MN, 56071",0,44.543046,-93.562509
25398,"31675 65TH AVE, CANNON FALLS, MN, 55009",0,44.490982,-92.907931
26074,"1105 W FRONTAGE RD, OWATONNA, MN, 55060",490,44.09586,-93.252144
27189,"12945 ROLLING RIDGE ROAD, BECKER, MN, 55308",414,45.384591,-93.862459
27424,"23100 SAINT FRANCIS BLVD, ST. FRANCIS, MN, 55070",418,45.388375,-93.368703
27643,"401 N ROBERT ST STE 223, ST. PAUL, MN, 55101",0,44.947904,-93.092628
27770,"3990 12TH AVE, SHAKOPEE, MN, 55379",444,44.784515,-93.470307
27799,"391 SOUTH BLVD, BLOOMINGTON, MN, 55425",0,44.853665,-93.241863
28170,"456 GREAT OAK DR, WAITE PARK, MN, 56387",417,45.561848,-94.228541
28173,"650 2ND ST NE, AITKIN, MN, 56431",449,46.534027,-93.697253
29004,"3045 HOLIDAY LN, EAGAN, MN, 55121",431,44.846863,-93.124132
29339,"7830 32ND ST N, OAKDALE, MN, 55128",423,44.997,-92.949486
29439,"1402 14TH ST NW, AUSTIN, MN, 55912",385,43.678434,-92.992517
30186,"10270 BALTIMORE STREET NE SUITE 100, BLAINE, MN, 55449",437,45.156712,-93.234117
30264,"15232 BLUEBIRD STREET NW, ANDOVER, MN, 55304",417,45.24673,-93.304534
30566,"304 BLATTNER DRIVE, AVON, MN, 56310",0,45.605998,-94.451999
30608,"955 HIGH POINT DRIVE NE, BYRON, MN, 55920",389,44.030236,-92.630156
31069,"903 MAIN STREET, BAUDETTE, MN, 56623",0,48.712605,-94.613275
31221,"4636 COMMERCIAL DR SW, ROCHESTER, MN, 55902",390,43.954723,-92.470547
31232,"7295 GLORY ROAD, BAXTER, MN, 56425",0,46.342336,-94.249352
31278,"2378 PINE RD NW, RICE, MN, 56367-9740",417,45.756685,-94.213163
31517,"4655 KNUTSEN DR, FARMINGTON, MN, 55024",437,44.641365,-93.162142
31549,"18185 ZANE ST. (WALMART), ELK RIVER, MN, 55330",0,45.302976,-93.553962
31701,"412 HERITAGE BLVD NE, ISANTI, MN, 55040-7109",467,45.492632,-93.238146
31720,"1320 RAY DR, WORTHINGTON, MN, 56187",422,43.63261,-95.594379
31894,"1390 7TH STREET E, MONTICELLO, MN, 55362",0,45.29475,-93.777789
32027,"139 HIGHWAY 23 W, FOLEY, MN, 56329-8533",461,45.664632,-93.919396
32517,"29575 SPORTSMAN DR, CHISAGO CITY, MN, 55013",412,45.377063,-92.881511
32645,"500 HIGHWAY 65, MORA, MN, 55051",469,45.87566,-93.288765
32796,"120 SOUTH BROADWAY, PELICAN RAPIDS, MN, 56572",0,46.567902,-96.084116
32805,"HWY 52, ZUMBROTA, MN, 55992",395,44.280005,-92.671523
33719,"211 ELM STREET WEST, ANNANDALE, MN, 55302",411,45.262588,-94.128097
34269,"17645 CEDAR AVENUE, LAKEVILLE, MN, 55044",436,44.692832,-93.217119
34406,"203 MORRIS AVE STE 3, HINCKLEY, MN, 55037",478,46.011622,-92.927569
34782,"NULL ENTERPRISE DR, BELLE PLAINE, MN, 56011",0,44.620954,-93.747595
35317,"1180 E. ELM STREET, ST JOSEPH, MN, 56374",414,45.56803,-94.301051
35490,"2601 ORLEANS STREET, STILLWATER, MN, 55082",469,45.04288,-92.839354
35706,"1120 HAZELTINE BLVD, CHASKA, MN, 55318",426,44.834843,-93.601509
35715,"100 JUDD STREET SUITE A, PERHAM, MN, 56573",414,46.584792,-95.575218
